Unnamed: 0,DateTime,Satellite,Reflected_Signal_Strength,Direct_Signal_Strength,Reflectivity,-1,0,TimeUS,Roll,Pitch,Yaw,Alt,Lat,Lng,Adjust_LAT_M,Adjust_LON_M,Crop
62,2023-10-28 11:11:36,G10,34.6,40.7,6.100000000000001,12:49.1,AHR2,1698491495955802.0,-1.05,-1.89,150.83,0.74,32.80518552936555,-79.82582385414854,1.617754534470137,0.3820747801052983,
63,2023-10-28 11:11:36,G12,25.9,29.5,3.6000000000000014,12:49.1,AHR2,1698491495955802.0,-1.05,-1.89,150.83,0.74,32.80516862423341,-79.82582064192889,0.0360428069276823,0.0244998046481953,
64,2023-10-28 11:11:37,G10,34.6,42.9,8.299999999999997,12:50.1,AHR2,1698491496955319.0,-1.05,-1.92,150.82,0.87,32.80518811613656,-79.82582447852596,1.901954641303542,0.4491960219319148,
65,2023-10-28 11:11:37,G12,24.4,28.0,3.6000000000000014,12:50.1,AHR2,1698491496955319.0,-1.05,-1.92,150.82,0.87,32.805168241184155,-79.82582070199747,0.0423746510740986,0.0288038241703505,
66,2023-10-28 11:11:38,G10,34.3,45.5,11.200000000000005,12:51.1,AHR2,1698491497955520.0,-1.05,-1.93,150.84,0.69,32.805183773578186,-79.8258237140033,1.5084467710022942,0.3562589107623903,
67,2023-10-28 11:11:38,G12,26.2,31.4,5.199999999999999,12:51.1,AHR2,1698491497955520.0,-1.05,-1.93,150.84,0.69,32.805168010685065,-79.82582071882557,0.0336074815860299,0.0228444120688937,
68,2023-10-28 11:11:39,G10,34.5,43.4,8.899999999999999,12:52.1,AHR2,1698491498955554.0,-1.03,-1.92,150.8,0.68,32.80518314479638,-79.82582396384127,1.4865852443697212,0.3510957430487901,
69,2023-10-28 11:11:39,G12,26.3,30.2,3.899999999999999,12:52.1,AHR2,1698491498955554.0,-1.03,-1.92,150.8,0.68,32.80516761035084,-79.82582101207187,0.0331204170983261,0.0225133339477097,
70,2023-10-28 11:11:40,G10,34.2,38.3,4.099999999999994,12:53.1,AHR2,1698491499955550.0,-1.04,-1.99,150.79,0.77,32.805185105364394,-79.82582479702783,1.6833391143678564,0.3975642832460989,
71,2023-10-28 11:11:40,G12,25.7,32.2,6.500000000000004,12:53.1,AHR2,1698491499955550.0,-1.04,-1.99,150.79,0.77,32.80516751488994,-79.82582145458318,0.0375040003907938,0.0254930390117474,
72,2023-10-28 11:11:41,G10,34.2,39.0,4.799999999999997,12:54.1,AHR2,1698491500955369.0,-1.01,-1.91,150.67,0.85,32.805186657583064,-79.82582527713541,1.8582315880383955,0.4388696865047145,
73,2023-10-28 11:11:41,G12,26.2,33.0,6.800000000000001,12:54.1,AHR2,1698491500955369.0,-1.01,-1.91,150.67,0.85,32.805167239525886,-79.82582158742359,0.041400522098691,0.0281416679279824,
74,2023-10-28 11:11:42,G10,34.6,40.9,6.299999999999997,12:55.1,AHR2,1698491501955518.0,-0.99,-1.76,150.58,0.72,32.805183286590285,-79.82582475131514,1.5740314812049907,0.371748444678098,
75,2023-10-28 11:11:42,G12,26.4,31.2,4.800000000000001,12:55.1,AHR2,1698491501955518.0,-0.99,-1.76,150.58,0.72,32.805166838353486,-79.82582162591214,0.0350686779522747,0.0238376484058271,
76,2023-10-28 11:11:43,G10,34.4,36.0,1.6000000000000014,12:56.1,AHR2,1698491502955597.0,-1.04,-1.65,150.55,0.96,32.80518863516821,-79.82582590928145,2.098708511301677,0.4956645621292235,
77,2023-10-28 11:11:43,G12,27.5,28.0,0.5,12:56.1,AHR2,1698491502955597.0,-1.04,-1.65,150.55,0.96,32.80516670418724,-79.82582174207772,0.0467582343665663,0.0317835292343883,
78,2023-10-28 11:11:44,G10,34.2,29.9,-4.300000000000004,12:57.1,AHR2,1698491503955820.0,-1.05,-1.92,150.34,0.81,32.80518483571291,-79.82582539035174,1.7707853512031262,0.4182169848754067,
79,2023-10-28 11:11:44,G12,26.7,29.6,2.900000000000002,12:57.1,AHR2,1698491503955820.0,-1.05,-1.92,150.34,0.81,32.80516633144731,-79.8258218742735,0.0394522612447424,0.0268173534698649,
80,2023-10-28 11:11:45,G10,34.1,32.4,-1.7000000000000028,12:58.1,AHR2,1698491504955608.0,-0.99,-1.85,150.14,1.0,32.80518922012473,-79.82582649349305,2.1861547481369468,0.5163172637585314,
81,2023-10-28 11:11:45,G12,26.6,24.2,-2.400000000000002,12:58.1,AHR2,1698491504955608.0,-0.99,-1.85,150.14,1.0,32.80516637535247,-79.82582215265573,0.0487064952205149,0.0331078436925058,
82,2023-10-28 11:11:46,G10,34.3,32.5,-1.7999999999999972,12:59.1,AHR2,1698491505956709.0,-1.0,-1.56,150.12,0.85,32.80518571312916,-79.82582577580231,1.8582315880383955,0.4388696865047145,
83,2023-10-28 11:11:46,G12,26.5,23.5,-3.0,12:59.1,AHR2,1698491505956709.0,-1.0,-1.56,150.12,0.85,32.8051662950722,-79.8258220860905,0.041400522098691,0.0281416679279824,
84,2023-10-28 11:11:47,G10,35.0,36.3,1.2999999999999972,13:00.1,AHR2,1698491506956665.0,1.28,-0.13,155.55,0.95,32.80518797403612,-79.82582561565653,2.076846984669104,0.4905013944156233,
85,2023-10-28 11:11:47,G12,26.1,27.3,1.1999999999999993,13:00.1,AHR2,1698491506956665.0,1.28,-0.13,155.55,0.95,32.80516627150276,-79.82582149186113,0.0462711698788625,0.0314524511132042,
86,2023-10-28 11:11:48,G10,34.6,33.0,-1.6000000000000014,13:01.1,AHR2,1698491507956628.0,-0.42,0.77,154.79,1.62,32.80520408455492,-79.82582892065672,3.5415707024062524,0.8364339697508134,
87,2023-10-28 11:11:48,G12,26.9,28.6,1.7000000000000028,13:01.1,AHR2,1698491507956628.0,-0.42,0.77,154.79,1.62,32.805167076023594,-79.82582188850024,0.0789045224894848,0.0536347069397299,
88,2023-10-28 11:11:49,G10,34.1,30.8,-3.3000000000000007,13:02.1,AHR2,1698491508956891.0,-0.29,-0.1,156.96,2.34,32.80522143124648,-79.82583295991776,5.115601923001288,1.208182352879097,
89,2023-10-28 11:11:49,G12,26.1,27.4,1.2999999999999972,13:02.1,AHR2,1698491508956891.0,-0.29,-0.1,156.96,2.34,32.80516797448081,-79.82582280235881,0.1139731946354929,0.0774723513987945,
90,2023-10-28 11:11:50,G10,34.2,32.4,-1.8000000000000045,13:03.1,AHR2,1698491509956555.0,-0.5,0.59,156.29,3.45,32.80524729014104,-79.82583777245306,7.542233985316448,1.7812945845868589,
91,2023-10-28 11:11:50,G12,25.2,27.9,2.6999999999999997,13:03.1,AHR2,1698491509956555.0,-0.5,0.59,156.29,3.45,32.80516847567492,-79.82582279656411,0.1680374108332832,0.11422206231785,
92,2023-10-28 11:11:51,G10,34.3,32.3,-2.0,13:04.1,AHR2,1698491510972797.0,-9.6,-0.13,156.45,4.64,32.80527430265902,-79.8258483716146,10.143757739472283,2.3957120349037933,
93,2023-10-28 11:11:51,G12,26.1,26.6,0.5,13:04.1,AHR2,1698491510972797.0,-9.6,-0.13,156.45,4.64,32.805168302918744,-79.82582823013003,0.2259981313201706,0.1536203903128529,
94,2023-10-28 11:11:52,G10,34.5,36.1,1.6000000000000014,13:05.1,AHR2,1698491511985876.0,3.17,0.87,151.65,5.35,32.80529257288505,-79.82583585289308,11.695927694044702,2.762297311868291,
95,2023-10-28 11:11:52,G12,27.3,27.5,0.1999999999999993,13:05.1,AHR2,1698491511985876.0,3.17,0.87,151.65,5.35,32.80517035335328,-79.82581262941386,0.2605797447847415,0.1771269605974961,
96,2023-10-28 11:11:53,G10,34.7,33.8,-0.9000000000000057,13:06.1,AHR2,1698491512998834.0,1.35,2.97,121.35,6.75,32.805328759045764,-79.82583817922766,14.756544549924392,3.4851415303700866,
97,2023-10-28 11:11:53,G12,26.7,28.1,1.400000000000002,13:06.1,AHR2,1698491512998834.0,1.35,2.97,121.35,6.75,32.80517455682401,-79.82580887857578,0.3287688427384758,0.2234779449244142,
98,2023-10-28 11:11:54,G10,34.6,34.0,-0.6000000000000014,13:07.1,AHR2,1698491514014899.0,-1.21,0.16,125.5,7.8,32.805348882466745,-79.82584735839603,17.052007452444112,4.027274755796247,
99,2023-10-28 11:11:54,G12,26.5,28.2,1.6999999999999993,13:07.1,AHR2,1698491514014899.0,-1.21,0.16,125.5,7.8,32.8051706932372,-79.82581349986415,0.3799106720100432,0.2582411871163654,
100,2023-10-28 11:11:55,G10,34.4,33.8,-0.6000000000000014,13:08.2,AHR2,1698491515029561.0,-1.54,1.39,122.18,8.65,32.805369953481694,-79.82585211000591,18.91023773743273,4.46614413455189,
101,2023-10-28 11:11:55,G12,26.3,29.1,2.8000000000000007,13:08.2,AHR2,1698491515029561.0,-1.54,1.39,122.18,8.65,32.805172346205936,-79.8258145617648,0.4213111650774008,0.2863828353105352,
102,2023-10-28 11:11:56,G10,34.6,34.7,0.1000000000000014,13:09.2,AHR2,1698491516045875.0,-1.29,0.68,124.2,10.07,32.80540236638149,-79.82585874432158,22.01457764657757,5.199314688480886,
103,2023-10-28 11:11:56,G12,26.4,27.3,0.9000000000000021,13:09.2,AHR2,1698491516045875.0,-1.29,0.68,124.2,10.07,32.80517231952864,-79.82581503209116,0.4904743920065427,0.3333959758798215,
104,2023-10-28 11:11:57,G10,34.8,34.4,-0.3999999999999986,13:10.1,AHR2,1698491516965862.0,1.11,0.27,122.39,11.17,32.80542755344886,-79.82585886510316,24.419348703480065,5.767263875574676,
105,2023-10-28 11:11:57,G12,26.0,29.1,3.1000000000000014,13:10.1,AHR2,1698491516965862.0,1.11,0.27,122.39,11.17,32.805172377338934,-79.82581037795003,0.5440515553291626,0.369814616571218,
106,2023-10-28 11:11:58,G10,34.6,35.6,1.0,13:11.1,AHR2,1698491517981793.0,-1.59,2.14,124.75,12.23,32.805456742522004,-79.82586887552905,26.73667156897264,6.314559899415552,
107,2023-10-28 11:11:58,G12,25.2,31.1,5.900000000000002,13:11.1,AHR2,1698491517981793.0,-1.59,2.14,124.75,12.23,32.805177350951595,-79.82581578709069,0.5956804142508336,0.404908913203778,
108,2023-10-28 11:11:59,G10,34.7,33.8,-0.9000000000000057,13:12.1,AHR2,1698491518997808.0,1.01,-0.09,122.59,13.19,32.805474567400005,-79.82586828965839,28.835380210579288,6.810224492319683,
109,2023-10-28 11:11:59,G12,25.7,29.8,4.100000000000001,13:12.1,AHR2,1698491518997808.0,1.01,-0.09,122.59,13.19,32.805173244861706,-79.82581103401604,0.6424386515205333,0.4366924444115476,
110,2023-10-28 11:12:00,G10,34.8,33.0,-1.7999999999999972,13:13.1,AHR2,1698491520012089.0,-1.0,-4.34,123.44,13.84,32.8054781502545,-79.82587346365062,30.256382047796087,7.145831009201836,
111,2023-10-28 11:12:00,G12,24.3,27.9,3.599999999999998,13:13.1,AHR2,1698491520012089.0,-1.0,-4.34,123.44,13.84,32.80516197864235,-79.82581338646152,0.6740979012839482,0.4582125617561365,
112,2023-10-28 11:12:01,G10,34.7,33.9,-0.8000000000000043,13:14.2,AHR2,1698491521027282.0,-2.07,-4.44,122.81,14.15,32.805481076523904,-79.82586912575414,30.934088852185944,7.305889085223813,
113,2023-10-28 11:12:01,G12,26.6,28.3,1.6999999999999993,13:14.2,AHR2,1698491521027282.0,-2.07,-4.44,122.81,14.15,32.80515782306114,-79.8258077029078,0.689196888790233,0.4684759756193172,
114,2023-10-28 11:12:02,G10,34.9,39.9,5.0,13:15.2,AHR2,1698491522041482.0,0.19,-5.64,105.99,14.34,32.80547552319093,-79.82584828541047,31.34945942186456,7.403989641081102,
115,2023-10-28 11:12:02,G12,25.9,28.0,2.1000000000000014,13:15.2,AHR2,1698491522041482.0,0.19,-5.64,105.99,14.34,32.80514792924681,-79.82578603780273,0.6984511488942056,0.4747664836023895,
116,2023-10-28 11:12:03,G10,34.4,40.2,5.800000000000004,13:16.1,AHR2,1698491522953793.0,-1.9,-4.15,112.8,14.58,32.805474559883066,-79.82582827074033,31.874136061046315,7.527905666207506,
117,2023-10-28 11:12:03,G12,24.1,28.8,4.699999999999999,13:16.1,AHR2,1698491522953793.0,-1.9,-4.15,112.8,14.58,32.80514148322502,-79.82576498133263,0.7101406965990971,0.4827123585108068,
118,2023-10-28 11:12:04,G10,35.0,40.5,5.5,13:17.1,AHR2,1698491523970940.0,-1.67,-2.43,109.26,15.04,32.80547769302199,-79.82579489853048,32.87976732858449,7.765411627232371,
119,2023-10-28 11:12:04,G12,24.9,27.8,2.900000000000002,13:17.1,AHR2,1698491523970940.0,-1.67,-2.43,109.26,15.04,32.805134107801045,-79.82572961233744,0.7325456862585393,0.4979419678723235,
120,2023-10-28 11:12:05,G10,35.5,41.0,5.5,13:18.1,AHR2,1698491524985094.0,-1.94,-1.49,110.57,15.04,32.805468733341456,-79.82575543585257,32.87976732858449,7.765411627232371,
121,2023-10-28 11:12:05,G12,25.0,26.9,1.8999999999999984,13:18.1,AHR2,1698491524985094.0,-1.94,-1.49,110.57,15.04,32.80512514815514,-79.82569014965954,0.7325456862585393,0.4979419678723235,
122,2023-10-28 11:12:06,G10,34.7,40.5,5.799999999999997,13:19.1,AHR2,1698491526000910.0,-1.29,-1.43,112.43,15.29,32.80546377637094,-79.82571321198587,33.42630601561873,7.894490943172003,
123,2023-10-28 11:12:06,G12,25.2,27.6,2.400000000000002,13:19.1,AHR2,1698491526000910.0,-1.29,-1.43,112.43,15.29,32.80511448003711,-79.8256468405835,0.7447223100636681,0.5062189287954499,
124,2023-10-28 11:12:07,G10,35.4,41.3,5.899999999999999,13:20.1,AHR2,1698491527014727.0,-1.27,-2.02,114.2,15.51,32.8054563494431,-79.8256711282476,33.90726064397516,8.008080879070464,
125,2023-10-28 11:12:07,G12,27.2,28.9,1.6999999999999993,13:20.1,AHR2,1698491527014727.0,-1.27,-2.02,114.2,15.51,32.805102027306724,-79.82560380185987,0.7554377520182187,0.5135026632485493,
126,2023-10-28 11:12:08,G10,35.1,41.7,6.600000000000001,13:21.2,AHR2,1698491528028052.0,-2.03,-1.68,115.43,15.47,32.805445412050815,-79.82562857970728,33.81981453744486,7.987428208216063,
127,2023-10-28 11:12:08,G12,26.7,29.6,2.900000000000002,13:21.2,AHR2,1698491528028052.0,-2.03,-1.68,115.43,15.47,32.80509200374349,-79.82556142695287,0.7534894940674035,0.5121783507638131,
128,2023-10-28 11:12:09,G10,34.8,38.4,3.6000000000000014,13:22.2,AHR2,1698491529041952.0,-1.51,-1.85,116.68,15.61,32.80543664375906,-79.82558259972681,34.12587486786107,8.05971231000721,
129,2023-10-28 11:12:09,G12,24.7,27.5,2.8000000000000007,13:22.2,AHR2,1698491529041952.0,-1.51,-1.85,116.68,15.61,32.80508003724881,-79.82551483925783,0.7603083736701901,0.5168134286733398,
130,2023-10-28 11:12:10,G10,35.1,40.6,5.5,13:23.1,AHR2,1698491529953894.0,-1.23,-1.37,117.49,15.72,32.80542828460367,-79.82553654546828,34.366353224479106,8.116507524155697,
131,2023-10-28 11:12:10,G12,25.9,29.3,3.400000000000002,13:23.1,AHR2,1698491529953894.0,-1.23,-1.37,117.49,15.72,32.80506916520134,-79.82546830750454,0.7656661178725322,0.5204553116869395,
132,2023-10-28 11:12:11,G10,35.2,40.6,5.399999999999999,13:24.1,AHR2,1698491530971026.0,4.46,-1.52,127.59,15.35,32.805404704177015,-79.82547624157719,33.55747621785399,7.925470195652861,
133,2023-10-28 11:12:11,G12,26.0,29.7,3.6999999999999993,13:24.1,AHR2,1698491530971026.0,4.46,-1.52,127.59,15.35,32.805054037386746,-79.82540960972277,0.7476447202149578,0.5082054133096043,
134,2023-10-28 11:12:12,G10,34.9,39.7,4.800000000000004,13:25.1,AHR2,1698491531986483.0,2.75,-1.35,140.01,15.3,32.805383335498,-79.82544116335967,33.448168063471215,7.899654233985232,
135,2023-10-28 11:12:12,G12,25.0,29.3,4.300000000000001,13:25.1,AHR2,1698491531986483.0,2.75,-1.35,140.01,15.3,32.8050338110286,-79.82537474854793,0.7452093861639053,0.506550014810159,
136,2023-10-28 11:12:13,G10,35.5,41.0,5.5,13:26.1,AHR2,1698491533000172.0,2.01,-2.32,142.97,15.33,32.80535525202447,-79.82540827130398,33.51375212214902,7.9151436140264035,
137,2023-10-28 11:12:13,G12,26.8,30.9,4.099999999999998,13:26.1,AHR2,1698491533000172.0,2.01,-2.32,142.97,15.33,32.80500504233248,-79.82534172626829,0.7466705680144834,0.5075432412801862,
138,2023-10-28 11:12:14,G10,34.7,40.1,5.399999999999999,13:27.1,AHR2,1698491534014802.0,1.23,-1.7,146.92,15.69,32.805335224385026,-79.82537914795492,34.30076708092166,8.101017651716012,
139,2023-10-28 11:12:14,G12,25.4,28.4,3.0,13:27.1,AHR2,1698491534014802.0,1.23,-1.7,146.92,15.69,32.80497679071317,-79.82531104021928,0.7642048895718206,0.5194620536428122,
140,2023-10-28 11:12:15,G10,35.2,40.7,5.5,13:28.2,AHR2,1698491535029579.0,-0.02,-1.56,146.18,15.34,32.805293858371584,-79.82534989895863,33.53561417000151,7.9203069048396335,
141,2023-10-28 11:12:15,G12,26.6,28.8,2.1999999999999997,13:28.2,AHR2,1698491535029579.0,-0.02,-1.56,146.18,15.34,32.804943420470046,-79.82528331051357,0.7471576441147205,0.5078743272948953,
142,2023-10-28 11:12:16,G10,34.7,41.0,6.299999999999997,13:29.2,AHR2,1698491536042890.0,-0.66,-0.29,146.93,15.21,32.80525876298094,-79.82532032189319,33.25141380255815,7.853185601463202,
143,2023-10-28 11:12:16,G12,27.4,29.4,2.0,13:29.2,AHR2,1698491536042890.0,-0.66,-0.29,146.93,15.21,32.80491129502003,-79.82525429775747,0.7408257941620375,0.5035703038259774,
144,2023-10-28 11:12:17,G10,35.2,39.5,4.299999999999997,13:30.1,AHR2,1698491536957908.0,-0.4,-0.48,145.78,15.44,32.80522697713734,-79.8252900830231,33.754228393887416,7.971938335776378,
145,2023-10-28 11:12:17,G12,28.2,29.5,1.3000000000000007,13:30.1,AHR2,1698491536957908.0,-0.4,-0.48,145.78,15.44,32.804874255052226,-79.82522306049678,0.7520282657666919,0.5111850927196857,
146,2023-10-28 11:12:18,G10,34.8,41.2,6.400000000000006,13:31.1,AHR2,1698491537976099.0,-0.47,0.29,145.02,15.43,32.805192760574,-79.82525930537432,33.73236843091457,7.966775537361662,
147,2023-10-28 11:12:18,G12,28.2,30.2,2.0,13:31.1,AHR2,1698491537976099.0,-0.47,0.29,145.02,15.43,32.80484026705405,-79.82519232625323,0.7515412361165882,0.5108540382790768,
148,2023-10-28 11:12:19,G10,31.2,40.8,9.599999999999998,13:32.1,AHR2,1698491538993487.0,-0.35,0.0,146.0,15.31,32.8051530218896,-79.82522795187343,33.470030111323695,7.90481752479846,
149,2023-10-28 11:12:19,G12,26.2,28.5,2.3000000000000007,13:32.1,AHR2,1698491538993487.0,-0.35,0.0,146.0,15.31,32.80480326987474,-79.82516149365233,0.7456964622641424,0.5068811008248681,
150,2023-10-28 11:12:20,G10,32.6,40.4,7.799999999999997,13:33.1,AHR2,1698491540007646.0,-0.3,-0.36,145.51,15.47,32.80511912129255,-79.82519888149388,33.81981453744486,7.987428208216063,
151,2023-10-28 11:12:20,G12,25.0,28.4,3.3999999999999986,13:33.1,AHR2,1698491540007646.0,-0.3,-0.36,145.51,15.47,32.804765714282496,-79.82513172873946,0.7534894940674035,0.5121783507638131,
152,2023-10-28 11:12:21,G10,30.4,40.4,10.0,13:34.2,AHR2,1698491541021616.0,-0.16,-0.28,145.14,15.59,32.80508554956778,-79.8251700015153,34.08215285703574,8.049386220779265,
153,2023-10-28 11:12:21,G12,27.2,29.8,2.6000000000000014,13:34.2,AHR2,1698491541021616.0,-0.16,-0.28,145.14,15.59,32.804729401346,-79.82510232786092,0.7593342679198493,0.5161512882180217,
154,2023-10-28 11:12:22,G10,32.0,40.0,8.0,13:35.2,AHR2,1698491542036155.0,0.04,-0.3,145.1,15.34,32.80504266393925,-79.82513935465005,33.53561417000151,7.9203069048396335,
155,2023-10-28 11:12:22,G12,28.8,29.3,0.5,13:35.2,AHR2,1698491542036155.0,0.04,-0.3,145.1,15.34,32.80469222702801,-79.82507276620498,0.7471576441147205,0.5078743272948953,
156,2023-10-28 11:12:23,G10,30.8,40.5,9.7,13:36.2,AHR2,1698491543048907.0,-0.87,-0.42,144.81,15.49,32.80500851341566,-79.82511365968995,33.8635365482702,7.997754297444008,
157,2023-10-28 11:12:23,G12,33.3,30.3,-2.9999999999999964,13:36.2,AHR2,1698491543048907.0,-0.87,-0.42,144.81,15.49,32.80465464996577,-79.82504642012094,0.7544635998177444,0.512840491219131,
158,2023-10-28 11:12:24,G10,30.0,40.5,10.5,13:37.1,AHR2,1698491543959875.0,-0.48,-0.39,144.41,15.29,32.804966141466586,-79.82508226967452,33.42630601561873,7.894490943172003,
159,2023-10-28 11:12:24,G12,28.8,30.5,1.6999999999999993,13:37.1,AHR2,1698491543959875.0,-0.48,-0.39,144.41,15.29,32.80461684708824,-79.82501589827216,0.7447223100636681,0.5062189287954499,
160,2023-10-28 11:12:24,G32,26.9,40.4,13.5,13:37.1,AHR2,1698491543959875.0,-0.48,-0.39,144.41,15.29,32.80461684708824,-79.82500680319278,0.7447223100636678,-0.5062189287954504,
161,2023-10-28 11:12:25,G10,33.0,40.5,7.5,13:38.1,AHR2,1698491544975605.0,-0.57,-0.45,144.24,15.68,32.80493814987152,-79.82505532922698,34.27890711794881,8.095854853301296,
162,2023-10-28 11:12:25,G12,23.9,29.4,5.5,13:38.1,AHR2,1698491544975605.0,-0.57,-0.45,144.24,15.68,32.80457994622949,-79.82498726489656,0.763717859921717,0.5191309992022033,
163,2023-10-28 11:12:25,G32,28.1,39.9,11.799999999999995,13:38.1,AHR2,1698491544975605.0,-0.57,-0.45,144.24,15.68,32.80457994622949,-79.82497793783001,0.7637178599217167,-0.5191309992022037,
164,2023-10-28 11:12:26,G10,33.2,40.3,7.099999999999994,13:39.1,AHR2,1698491545992033.0,-0.29,0.15,143.43,15.59,32.80490169931318,-79.82502521928453,34.08215285703574,8.049386220779265,
165,2023-10-28 11:12:26,G12,25.3,29.3,4.0,13:39.1,AHR2,1698491545992033.0,-0.29,0.15,143.43,15.59,32.804545551828014,-79.82495754563014,0.7593342679198493,0.5161512882180217,
166,2023-10-28 11:12:27,G10,33.4,39.6,6.200000000000003,13:40.1,AHR2,1698491547004865.0,0.17,-0.28,143.64,15.87,32.80487127628058,-79.8249963861283,34.694275602747794,8.193954916760072,
167,2023-10-28 11:12:27,G12,25.9,29.9,4.0,13:40.1,AHR2,1698491547004865.0,0.17,-0.28,143.64,15.87,32.804508732461265,-79.82492749704063,0.772972073575556,0.5254214756111752,
168,2023-10-28 11:12:28,G10,32.8,40.5,7.700000000000003,13:41.1,AHR2,1698491548018601.0,-0.05,-0.25,143.61,16.0,32.80483829635342,-79.82496893753556,34.97847597019115,8.261076220136502,
169,2023-10-28 11:12:28,G12,23.4,30.6,7.200000000000003,13:41.1,AHR2,1698491548018601.0,-0.05,-0.25,143.61,16.0,32.80447278288143,-79.82489948413853,0.779303923528239,0.5297254990800931,
170,2023-10-28 11:12:29,G10,33.5,40.8,7.299999999999997,13:42.2,AHR2,1698491549032993.0,-0.32,-0.48,143.0,15.83,32.80479755285913,-79.82494071783881,34.6068294962175,8.17330224590567,
171,2023-10-28 11:12:29,G12,25.0,30.2,5.199999999999999,13:42.2,AHR2,1698491549032993.0,-0.32,-0.48,143.0,15.83,32.80443592311912,-79.82487200238447,0.7710238156247408,0.5240971631264391,
172,2023-10-28 11:12:30,G10,33.2,40.2,7.0,13:43.2,AHR2,1698491550046790.0,-0.82,0.32,141.95,16.38,32.80477679870544,-79.82491618070826,35.809212939789106,8.457276347054052,
173,2023-10-28 11:12:30,G12,24.1,30.2,6.099999999999998,13:43.2,AHR2,1698491550046790.0,-0.82,0.32,141.95,16.38,32.80440260460392,-79.8248450777967,0.7978123508359172,0.5423064518980371,water
174,2023-10-28 11:12:31,G10,32.6,40.8,8.199999999999996,13:44.1,AHR2,1698491550958572.0,0.64,-2.73,142.49,16.63,32.80473778686321,-79.82488516539648,36.35575162682335,8.586355662993684,
175,2023-10-28 11:12:31,G12,24.6,30.4,5.799999999999997,13:44.1,AHR2,1698491550958572.0,0.64,-2.73,142.49,16.63,32.804357881809906,-79.82481297727558,0.8099889746410459,0.5505834128211635,water
176,2023-10-28 11:12:32,G10,33.0,39.9,6.899999999999999,13:45.1,AHR2,1698491551977079.0,-1.13,-1.54,137.52,16.26,32.80469614473837,-79.82485929923476,35.54687670507787,8.395318826889364,
177,2023-10-28 11:12:32,G12,25.1,30.5,5.399999999999999,13:45.1,AHR2,1698491551977079.0,-1.13,-1.54,137.52,16.26,32.804324692286635,-79.82478871721904,0.7919676234336049,0.5383335460179286,water
178,2023-10-28 11:12:33,G10,33.2,41.5,8.299999999999997,13:46.1,AHR2,1698491552993365.0,-0.6,-0.72,140.34,15.33,32.80463902808404,-79.82482434666973,33.51375212214902,7.9151436140264035,
179,2023-10-28 11:12:33,G12,23.5,30.5,7.0,13:46.1,AHR2,1698491552993365.0,-0.6,-0.72,140.34,15.33,32.80428882121383,-79.82475780163404,0.7466705680144834,0.5075432412801862,water
180,2023-10-28 11:12:34,G10,33.8,40.7,6.900000000000006,13:47.1,AHR2,1698491554009100.0,-0.22,0.08,137.57,15.31,32.80460344814816,-79.8247938398085,33.470030111323695,7.90481752479846,
181,2023-10-28 11:12:34,G12,25.3,29.6,4.300000000000001,13:47.1,AHR2,1698491554009100.0,-0.22,0.08,137.57,15.31,32.80425369829567,-79.82472738158741,0.7456964622641424,0.5068811008248681,water
182,2023-10-28 11:12:35,G10,32.6,39.8,7.199999999999996,13:48.2,AHR2,1698491555022865.0,0.0,-0.34,138.28,15.27,32.80456361644698,-79.82476272617923,33.3825840047934,7.88416485394406,
183,2023-10-28 11:12:35,G12,23.9,29.6,5.700000000000003,13:48.2,AHR2,1698491555022865.0,0.0,-0.34,138.28,15.27,32.80421478052769,-79.82469644159146,0.7437482043133272,0.505556788340132,water
184,2023-10-28 11:12:36,G10,33.0,40.9,7.899999999999999,13:49.2,AHR2,1698491556037843.0,-1.23,-0.52,139.08,14.62,32.80451117929072,-79.82473333121621,31.96158216757661,7.548558337061906,
185,2023-10-28 11:12:36,G12,23.6,30.5,6.899999999999999,13:49.2,AHR2,1698491556037843.0,-1.23,-0.52,139.08,14.62,32.80417719246623,-79.82466986817516,0.7120889545499124,0.484036670995543,water
186,2023-10-28 11:12:37,G10,32.7,41.1,8.399999999999999,13:50.1,AHR2,1698491556949524.0,-2.01,-1.05,138.2,14.65,32.804473728536564,-79.82470576923726,32.02716622625442,7.564047717103079,water
187,2023-10-28 11:12:37,G12,23.4,29.1,5.700000000000003,13:50.1,AHR2,1698491556949524.0,-2.01,-1.05,138.2,14.65,32.80413905652632,-79.82464217597224,0.7135501364004904,0.4850298974655701,water
188,2023-10-28 11:12:38,G10,33.5,41.2,7.700000000000003,13:51.1,AHR2,1698491557962101.0,-0.29,-1.16,138.8,14.75,32.8044397425563,-79.82467258495423,32.24578253501996,7.615679640438336,water
189,2023-10-28 11:12:38,G12,25.8,30.1,4.300000000000001,13:51.1,AHR2,1698491557962101.0,-0.29,-1.16,138.8,14.75,32.80410278622438,-79.82460855760384,0.7184208045025954,0.4883406944644608,water
190,2023-10-28 11:12:39,G10,33.2,40.6,7.399999999999999,13:52.1,AHR2,1698491558976313.0,-1.34,-1.12,139.17,14.91,32.80440705748927,-79.82464628952467,32.59556696114113,7.6982903238559395,water
191,2023-10-28 11:12:39,G12,24.1,29.9,5.799999999999997,13:52.1,AHR2,1698491558976313.0,-1.34,-1.12,139.17,14.91,32.80406644618088,-79.82458156764096,0.7262138363058565,0.4936379444034057,water
192,2023-10-28 11:12:40,G10,32.8,40.2,7.400000000000006,13:53.1,AHR2,1698491559991844.0,-1.09,-1.59,139.49,14.83,32.80436770394757,-79.8246165200962,32.42067474808055,7.656984982147138,water
193,2023-10-28 11:12:40,G12,23.7,29.2,5.5,13:53.1,AHR2,1698491559991844.0,-1.09,-1.59,139.49,14.83,32.804028920339306,-79.82455214547916,0.7223173204042258,0.4909893194339332,water
194,2023-10-28 11:12:40,G32,30.2,40.1,9.900000000000002,13:53.1,AHR2,1698491559991844.0,-1.09,-1.59,139.49,14.83,32.804028920339306,-79.82454332402547,0.7223173204042256,-0.4909893194339336,water
195,2023-10-28 11:12:41,G10,32.6,40.6,8.0,13:54.1,AHR2,1698491561006630.0,-0.53,-2.28,137.81,15.23,32.80433886862345,-79.8245889062656,33.29513581338348,7.863511690691147,water
196,2023-10-28 11:12:41,G12,24.3,29.6,5.300000000000001,13:54.1,AHR2,1698491561006630.0,-0.53,-2.28,137.81,15.23,32.8039909473821,-79.82452279531529,0.7417998999123784,0.5042324442812955,water
197,2023-10-28 11:12:41,G32,25.4,40.5,15.1,13:54.1,AHR2,1698491561006630.0,-0.53,-2.28,137.81,15.23,32.8039909473821,-79.82451373592647,0.7417998999123782,-0.5042324442812959,water
198,2023-10-28 11:12:42,G10,33.0,40.8,7.799999999999997,13:55.1,AHR2,1698491562020987.0,-0.32,-1.42,138.09,15.18,32.80430215930344,-79.82455847036144,33.18582974388034,7.83769622142203,water
199,2023-10-28 11:12:42,G12,24.8,30.0,5.199999999999999,13:55.1,AHR2,1698491562020987.0,-0.32,-1.42,138.09,15.18,32.80395538040673,-79.82449257644967,0.7393646123114594,0.5025770773559504,water
200,2023-10-28 11:12:42,G32,28.3,40.3,11.999999999999996,13:55.1,AHR2,1698491562020987.0,-0.32,-1.42,138.09,15.18,32.80395538040673,-79.82448354680233,0.7393646123114592,-0.5025770773559508,water
201,2023-10-28 11:12:43,G10,33.2,41.4,8.199999999999996,13:56.2,AHR2,1698491563036816.0,-0.5,-1.29,137.64,15.24,32.804267014923404,-79.82453018179055,33.316997861235954,7.868674981504374,water
202,2023-10-28 11:12:43,G12,24.7,29.5,4.800000000000001,13:56.2,AHR2,1698491563036816.0,-0.5,-1.29,137.64,15.24,32.80391886551448,-79.82446402743088,0.7422869760126156,0.5045635302960046,water
203,2023-10-28 11:12:43,G32,28.4,40.9,12.5,13:56.2,AHR2,1698491563036816.0,-0.5,-1.29,137.64,15.24,32.80391886551448,-79.82445496209354,0.7422869760126153,-0.504563530296005,water
204,2023-10-28 11:12:44,G10,32.6,39.9,7.299999999999997,13:57.1,AHR2,1698491563949061.0,-0.58,-0.77,136.75,15.37,32.804234212308124,-79.82450088776083,33.60119822867932,7.935796284880806,water
205,2023-10-28 11:12:44,G12,22.4,28.7,6.300000000000001,13:57.1,AHR2,1698491563949061.0,-0.58,-0.77,136.75,15.37,32.80388309325968,-79.82443416909182,0.7486188259652986,0.5088675537649224,water
206,2023-10-28 11:12:44,G32,27.7,40.4,12.7,13:57.1,AHR2,1698491563949061.0,-0.58,-0.77,136.75,15.37,32.80388309325968,-79.8244250264254,0.7486188259652983,-0.5088675537649228,water
207,2023-10-28 11:12:45,G10,32.9,40.8,7.899999999999999,13:58.1,AHR2,1698491564964909.0,0.33,-0.32,137.38,15.17,32.80419504141197,-79.8244683774419,33.16396769602785,7.832532930608801,water
208,2023-10-28 11:12:45,G12,25.0,29.0,4.0,13:58.1,AHR2,1698491564964909.0,0.33,-0.32,137.38,15.17,32.80384849138177,-79.82440252693951,0.7388775362112223,0.5022459913412413,water
209,2023-10-28 11:12:45,G32,28.1,39.4,11.299999999999995,13:58.1,AHR2,1698491564964909.0,0.33,-0.32,137.38,15.17,32.80384849138177,-79.82439350324069,0.738877536211222,-0.5022459913412417,water
210,2023-10-28 11:12:46,G10,32.9,41.3,8.399999999999999,13:59.1,AHR2,1698491565981849.0,-0.2,-0.96,137.29,15.26,32.80415921671233,-79.82444105831748,33.36072195694092,7.879001563130831,water
211,2023-10-28 11:12:46,G12,22.9,30.1,7.200000000000003,13:59.1,AHR2,1698491565981849.0,-0.2,-0.96,137.29,15.26,32.80381061082853,-79.82437481713906,0.7432611282130901,0.5052257023254229,water
212,2023-10-28 11:12:46,G32,29.4,40.7,11.300000000000004,13:59.1,AHR2,1698491565981849.0,-0.2,-0.96,137.29,15.26,32.80381061082853,-79.82436573990468,0.7432611282130898,-0.5052257023254233,water
213,2023-10-28 11:12:47,G10,33.6,40.3,6.699999999999996,14:00.1,AHR2,1698491566999108.0,-0.66,-0.19,136.88,15.31,32.80412637514267,-79.82441279606917,33.470030111323695,7.90481752479846,water
214,2023-10-28 11:12:47,G12,24.3,28.5,4.199999999999999,14:00.1,AHR2,1698491566999108.0,-0.66,-0.19,136.88,15.31,32.80377662716723,-79.82434633784807,0.7456964622641424,0.5068811008248681,water
215,2023-10-28 11:12:47,G32,28.8,40.2,11.400000000000002,14:00.1,AHR2,1698491566999108.0,-0.66,-0.19,136.88,15.31,32.80377662716723,-79.82433723087165,0.7456964622641422,-0.5068811008248686,water
216,2023-10-28 11:12:48,G10,33.4,41.5,8.100000000000001,14:01.1,AHR2,1698491568013324.0,0.0,-0.07,137.46,15.39,32.80409188585234,-79.82438108276948,33.644922324384275,7.946122866507261,water
217,2023-10-28 11:12:48,G12,23.7,30.0,6.300000000000001,14:01.1,AHR2,1698491568013324.0,0.0,-0.07,137.46,15.39,32.80374031046938,-79.82431427728173,0.749592978165773,0.5095297257943406,water
218,2023-10-28 11:12:48,G32,28.5,41.1,12.6,14:01.1,AHR2,1698491568013324.0,0.0,-0.07,137.46,15.39,32.80374031046938,-79.82430512271827,0.7495929781657726,-0.509529725794341,water
219,2023-10-28 11:12:49,G10,33.1,40.9,7.799999999999997,14:02.2,AHR2,1698491569027867.0,-0.37,0.33,137.32,15.02,32.804047366223394,-79.82435073796623,32.836045317759165,7.755085538004428,water
220,2023-10-28 11:12:49,G12,23.3,29.5,6.199999999999999,14:02.2,AHR2,1698491569027867.0,-0.37,0.33,137.32,15.02,32.80370424340572,-79.82428553858777,0.7315715805081985,0.4972798274170055,water
221,2023-10-28 11:12:49,G32,27.6,40.6,13.0,14:02.2,AHR2,1698491569027867.0,-0.37,0.33,137.32,15.02,32.80370424340572,-79.82427660411447,0.7315715805081983,-0.4972798274170059,water
222,2023-10-28 11:12:50,G10,32.9,40.4,7.5,14:03.2,AHR2,1698491570040863.0,-0.26,0.29,137.38,15.22,32.804015437808474,-79.82432271471508,33.27327585041063,7.858348892276431,water
223,2023-10-28 11:12:50,G12,22.6,29.2,6.599999999999998,14:03.2,AHR2,1698491570040863.0,-0.26,0.29,137.38,15.22,32.8036677462594,-79.82425664716999,0.7413128702622747,0.5039013898406866,water
224,2023-10-28 11:12:50,G32,28.1,40.2,12.1,14:03.2,AHR2,1698491570040863.0,-0.26,0.29,137.38,15.22,32.8036677462594,-79.82424759372913,0.7413128702622744,-0.503901389840687,water
225,2023-10-28 11:12:51,G10,32.5,40.8,8.299999999999997,14:04.1,AHR2,1698491570953904.0,-0.7,0.38,137.33,15.1,32.80397598089064,-79.8242945950171,33.01093753081975,7.796390879713229,water
226,2023-10-28 11:12:51,G12,22.5,29.4,6.899999999999999,14:04.1,AHR2,1698491570953904.0,-0.7,0.38,137.33,15.1,32.8036310308074,-79.82422904837199,0.735468096409829,0.4999284523864779,water
227,2023-10-28 11:12:51,G32,27.9,40.6,12.700000000000005,14:04.1,AHR2,1698491570953904.0,-0.7,0.38,137.33,15.1,32.8036310308074,-79.82422006631165,0.7354680964098287,-0.4999284523864783,water
228,2023-10-28 11:12:52,G10,33.3,40.0,6.700000000000003,14:05.1,AHR2,1698491571967910.0,-0.99,0.3,136.94,15.15,32.803939826426,-79.8242669214178,33.120243600322894,7.822206348982345,water
229,2023-10-28 11:12:52,G12,23.1,29.3,6.199999999999999,14:05.1,AHR2,1698491571967910.0,-0.99,0.3,136.94,15.15,32.803593734286714,-79.82420115773414,0.737903384010748,0.501583819311823,water
230,2023-10-28 11:12:52,G32,28.3,40.4,12.099999999999998,14:05.1,AHR2,1698491571967910.0,-0.99,0.3,136.94,15.15,32.803593734286714,-79.82419214593236,0.7379033840107476,-0.5015838193118235,water
231,2023-10-28 11:12:53,G10,32.9,40.9,8.0,14:06.1,AHR2,1698491572983891.0,-1.17,0.09,136.34,15.44,32.80390961350256,-79.82424024743369,33.754228393887416,7.971938335776378,water
232,2023-10-28 11:12:53,G12,24.9,29.8,4.900000000000002,14:06.1,AHR2,1698491572983891.0,-1.17,0.09,136.34,15.44,32.803556896644714,-79.82417322490737,0.7520282657666919,0.5111850927196857,water
233,2023-10-28 11:12:53,G32,28.0,40.8,12.799999999999995,14:06.1,AHR2,1698491572983891.0,-1.17,0.09,136.34,15.44,32.803556896644714,-79.82416404060247,0.7520282657666916,-0.5111850927196862,water
234,2023-10-28 11:12:54,G10,32.6,41.2,8.600000000000001,14:07.1,AHR2,1698491574000553.0,-1.13,-0.13,136.39,15.47,32.80387317996429,-79.82421169502864,33.81981453744486,7.987428208216063,water
235,2023-10-28 11:12:54,G12,24.7,28.1,3.400000000000002,14:07.1,AHR2,1698491574000553.0,-1.13,-0.13,136.39,15.47,32.80351977790768,-79.82414454227423,0.7534894940674035,0.5121783507638131,water
236,2023-10-28 11:12:54,G32,27.6,40.9,13.299999999999995,14:07.1,AHR2,1698491574000553.0,-1.13,-0.13,136.39,15.47,32.80351977790768,-79.82413534012376,0.7534894940674032,-0.5121783507638135,water
237,2023-10-28 11:12:55,G10,32.5,39.9,7.399999999999999,14:08.1,AHR2,1698491575014970.0,-0.97,-0.06,136.12,15.38,32.80383467997881,-79.82418197568119,33.6230602765318,7.940959575694034,water
238,2023-10-28 11:12:55,G12,22.7,27.3,4.600000000000001,14:08.1,AHR2,1698491575014970.0,-0.97,-0.06,136.12,15.38,32.80348333406079,-79.8241152136028,0.7491059020655357,0.5091986397796315,water
239,2023-10-28 11:12:55,G32,27.7,39.9,12.2,14:08.1,AHR2,1698491575014970.0,-0.97,-0.06,136.12,15.38,32.80348333406079,-79.82410606498786,0.7491059020655355,-0.5091986397796319,water
240,2023-10-28 11:12:56,G10,32.8,40.5,7.700000000000003,14:09.2,AHR2,1698491576028651.0,-0.63,-0.02,136.27,15.37,32.80379846097286,-79.82415230826659,33.60119822867932,7.935796284880806,water
241,2023-10-28 11:12:56,G12,23.7,28.2,4.5,14:09.2,AHR2,1698491576028651.0,-0.63,-0.02,136.27,15.37,32.80344734364558,-79.82408558959757,0.7486188259652986,0.5088675537649224,water
242,2023-10-28 11:12:56,G32,28.1,40.8,12.699999999999996,14:09.2,AHR2,1698491576028651.0,-0.63,-0.02,136.27,15.37,32.80344734364558,-79.82407644693116,0.7486188259652983,-0.5088675537649228,water
243,2023-10-28 11:12:57,G10,32.9,40.8,7.899999999999999,14:10.2,AHR2,1698491577043727.0,-0.94,0.6,135.98,15.38,32.80376397323407,-79.82412440331865,33.6230602765318,7.940959575694034,water
244,2023-10-28 11:12:57,G12,23.2,27.1,3.900000000000002,14:10.2,AHR2,1698491577043727.0,-0.94,0.6,135.98,15.38,32.803412627595506,-79.82405764124026,0.7491059020655357,0.5091986397796315,water
245,2023-10-28 11:12:57,G32,27.7,40.6,12.900000000000002,14:10.2,AHR2,1698491577043727.0,-0.94,0.6,135.98,15.38,32.803412627595506,-79.82404849262532,0.7491059020655355,-0.5091986397796319,water
246,2023-10-28 11:12:58,G10,32.9,41.7,8.800000000000004,14:11.1,AHR2,1698491577957365.0,-0.47,0.8,135.38,15.73,32.80373707688257,-79.82409601895543,34.38821318745195,8.121670322570411,water
247,2023-10-28 11:12:58,G12,23.8,27.8,4.0,14:11.1,AHR2,1698491577957365.0,-0.47,0.8,135.38,15.73,32.80337773588699,-79.82402773758646,0.7661531475226359,0.5207863661275484,water
248,2023-10-28 11:12:58,G32,27.3,41.1,13.8,14:11.1,AHR2,1698491577957365.0,-0.47,0.8,135.38,15.73,32.80337773588699,-79.82401838077844,0.7661531475226355,-0.5207863661275488,water
249,2023-10-28 11:12:59,G10,33.2,40.0,6.799999999999997,14:12.1,AHR2,1698491578971609.0,-0.52,0.7,135.67,15.84,32.803703867777045,-79.82406756145882,34.62869154406998,8.178465536718898,water
250,2023-10-28 11:12:59,G12,23.9,28.9,5.0,14:12.1,AHR2,1698491578971609.0,-0.52,0.7,135.67,15.84,32.803342014039,-79.8239988025951,0.771510891724978,0.5244282491411482,water
251,2023-10-28 11:12:59,G32,27.8,40.7,12.900000000000002,14:12.1,AHR2,1698491578971609.0,-0.52,0.7,135.67,15.84,32.803342014039,-79.82398938035448,0.7715108917249777,-0.5244282491411486,water
252,2023-10-28 11:13:00,G10,33.2,40.1,6.899999999999999,14:13.1,AHR2,1698491579987904.0,-0.42,0.24,135.71,15.62,32.80366085823165,-79.82403687818308,34.14773691571355,8.064875600820438,water
253,2023-10-28 11:13:00,G12,23.4,31.4,8.0,14:13.1,AHR2,1698491579987904.0,-0.42,0.24,135.71,15.62,32.803304030398024,-79.82396907430473,0.7607954497704273,0.5171445146880489,water
254,2023-10-28 11:13:00,G32,28.3,38.6,10.3,14:13.1,AHR2,1698491579987904.0,-0.42,0.24,135.71,15.62,32.803304030398024,-79.82395978292871,0.760795449770427,-0.5171445146880492,water
255,2023-10-28 11:13:01,G10,33.3,41.9,8.600000000000001,14:14.1,AHR2,1698491581002629.0,-0.72,0.53,135.66,15.8,32.80362852655972,-79.8240084681791,34.541245437539686,8.157812865864498,water
256,2023-10-28 11:13:01,G12,24.1,28.1,4.0,14:14.1,AHR2,1698491581002629.0,-0.72,0.53,135.66,15.8,32.803267586894975,-79.82393988294871,0.7695626337741627,0.523103936656412,water
257,2023-10-28 11:13:01,G32,28.5,38.0,9.5,14:14.1,AHR2,1698491581002629.0,-0.72,0.53,135.66,15.8,32.803267586894975,-79.8239304845016,0.7695626337741625,-0.5231039366564124,water
258,2023-10-28 11:13:02,G10,32.9,38.8,5.899999999999999,14:15.1,AHR2,1698491582015435.0,-1.31,-0.02,135.3,15.67,32.803586368422,-79.8239802005578,34.257045070096325,8.090691562488066,water
259,2023-10-28 11:13:02,G12,24.5,27.7,3.1999999999999997,14:15.1,AHR2,1698491582015435.0,-1.31,-0.02,135.3,15.67,32.803228398674094,-79.82391217963675,0.7632307838214797,0.5187999131874942,water
260,2023-10-28 11:13:02,G32,27.7,35.2,7.5000000000000036,14:15.1,AHR2,1698491582015435.0,-1.31,-0.02,135.3,15.67,32.803228398674094,-79.82390285851872,0.7632307838214795,-0.5187999131874945,water
261,2023-10-28 11:13:03,G10,32.9,38.7,5.800000000000004,14:16.2,AHR2,1698491583030640.0,-0.87,0.31,135.26,15.39,32.80354347453441,-79.82394828222533,33.644922324384275,7.946122866507261,water
262,2023-10-28 11:13:03,G12,22.7,30.4,7.699999999999999,14:16.2,AHR2,1698491583030640.0,-0.87,0.31,135.26,15.39,32.8031919013204,-79.82388147673758,0.749592978165773,0.5095297257943406,water
263,2023-10-28 11:13:03,G32,28.6,31.8,3.1999999999999997,14:16.2,AHR2,1698491583030640.0,-0.87,0.31,135.26,15.39,32.8031919013204,-79.82387232217413,0.7495929781657726,-0.509529725794341,water
264,2023-10-28 11:13:04,G10,33.2,39.6,6.399999999999999,14:17.2,AHR2,1698491584047670.0,0.18,0.29,135.74,15.44,32.803508387897985,-79.82391667892948,33.754228393887416,7.971938335776378,water
265,2023-10-28 11:13:04,G12,23.5,30.9,7.399999999999999,14:17.2,AHR2,1698491584047670.0,0.18,0.29,135.74,15.44,32.80315567263212,-79.82384965640315,0.7520282657666919,0.5111850927196857,water
266,2023-10-28 11:13:04,G32,28.1,33.2,5.100000000000001,14:17.2,AHR2,1698491584047670.0,0.18,0.29,135.74,15.44,32.80315567263212,-79.82384047209825,0.7520282657666916,-0.5111850927196862,water
267,2023-10-28 11:13:05,G10,33.4,41.6,8.200000000000003,14:18.1,AHR2,1698491584960793.0,-1.06,-0.76,135.67,15.05,32.8034603065451,-79.82388940730131,32.90162937643697,7.7705749180455985,water
268,2023-10-28 11:13:05,G12,23.2,29.8,6.600000000000001,14:18.1,AHR2,1698491584960793.0,-1.06,-0.76,135.67,15.05,32.8031165006749,-79.8238240776989,0.7330327623587766,0.4982730538870326,water
269,2023-10-28 11:13:05,G32,27.7,32.9,5.199999999999999,14:18.1,AHR2,1698491584960793.0,-1.06,-0.76,135.67,15.05,32.8031165006749,-79.8238151253806,0.7330327623587762,-0.498273053887033,water
270,2023-10-28 11:13:06,G10,33.8,39.5,5.700000000000003,14:19.1,AHR2,1698491585973878.0,-0.79,-0.17,134.46,15.31,32.80343122946693,-79.82386070817637,33.470030111323695,7.90481752479846,water
271,2023-10-28 11:13:06,G12,25.4,29.3,3.900000000000002,14:19.1,AHR2,1698491585973878.0,-0.79,-0.17,134.46,15.31,32.80308148422648,-79.82379424995527,0.7456964622641424,0.5068811008248681,water
272,2023-10-28 11:13:06,G32,27.7,31.6,3.900000000000002,14:19.1,AHR2,1698491585973878.0,-0.79,-0.17,134.46,15.31,32.80308148422648,-79.82378514297885,0.7456964622641422,-0.5068811008248686,water
273,2023-10-28 11:13:07,G10,33.0,36.6,3.6000000000000014,14:20.1,AHR2,1698491586987436.0,-0.87,0.12,135.37,15.15,32.80339011554615,-79.82382923630027,33.120243600322894,7.822206348982345,water
274,2023-10-28 11:13:07,G12,24.1,28.5,4.399999999999999,14:20.1,AHR2,1698491586987436.0,-0.87,0.12,135.37,15.15,32.80304402554704,-79.8237634726166,0.737903384010748,0.501583819311823,water
275,2023-10-28 11:13:07,G32,27.8,30.2,2.3999999999999986,14:20.1,AHR2,1698491586987436.0,-0.87,0.12,135.37,15.15,32.80304402554704,-79.82375446081483,0.7379033840107476,-0.5015838193118235,water
276,2023-10-28 11:13:08,G10,33.3,37.3,4.0,14:21.1,AHR2,1698491588000570.0,-1.16,0.18,134.49,15.25,32.80335522480204,-79.82380040738774,33.338859909088434,7.873838272317602,water
277,2023-10-28 11:13:08,G12,24.3,27.7,3.3999999999999986,14:21.1,AHR2,1698491588000570.0,-1.16,0.18,134.49,15.25,32.80300685051761,-79.82373420961869,0.7427740521128527,0.5048946163107138,water
278,2023-10-28 11:13:08,G32,26.8,30.5,3.6999999999999993,14:21.1,AHR2,1698491588000570.0,-1.16,0.18,134.49,15.25,32.80300685051761,-79.82372513833283,0.7427740521128525,-0.5048946163107141,water
279,2023-10-28 11:13:09,G10,33.6,37.0,3.3999999999999986,14:22.1,AHR2,1698491589014522.0,-1.01,-0.13,134.84,15.12,32.803315208542905,-79.8237704250417,33.05465954164508,7.806716968941172,water
280,2023-10-28 11:13:09,G32,27.8,30.5,2.6999999999999997,14:22.1,AHR2,1698491589014522.0,-1.01,-0.13,134.84,15.12,32.80296980415277,-79.8236957976252,0.7364422021601695,-0.5005905928417964,water
281,2023-10-28 11:13:10,G10,33.2,35.9,2.699999999999996,14:23.2,AHR2,1698491590028915.0,-0.37,-0.05,134.93,14.98,32.803276764267586,-79.82373945011115,32.74859712634924,7.734432374751512,water
282,2023-10-28 11:13:10,G12,25.2,27.6,2.400000000000002,14:23.2,AHR2,1698491590028915.0,-0.37,-0.05,134.93,14.98,32.802934558209515,-79.82367442437017,0.7296232761072498,0.4959554833581691,water
283,2023-10-28 11:13:10,G32,27.5,32.0,4.5,14:23.2,AHR2,1698491590028915.0,-0.37,-0.05,134.93,14.98,32.802934558209515,-79.82366551369095,0.7296232761072494,-0.4959554833581694,water
284,2023-10-28 11:13:11,G10,33.3,34.8,1.5,14:24.2,AHR2,1698491591044794.0,-0.04,-0.02,135.41,15.27,32.80324712266751,-79.82371072194594,33.3825840047934,7.88416485394406,water
285,2023-10-28 11:13:11,G12,24.1,30.4,6.299999999999997,14:24.2,AHR2,1698491591044794.0,-0.04,-0.02,135.41,15.27,32.80289829191434,-79.82364443735817,0.7437482043133272,0.505556788340132,water
286,2023-10-28 11:13:11,G32,27.6,30.6,3.0,14:24.2,AHR2,1698491591044794.0,-0.04,-0.02,135.41,15.27,32.80289829191434,-79.82363535417527,0.7437482043133269,-0.5055567883401324,water
287,2023-10-28 11:13:12,G10,32.6,36.3,3.699999999999996,14:25.1,AHR2,1698491591957848.0,-0.43,-0.47,135.29,15.18,32.8032069457794,-79.82368243217894,33.18582974388034,7.83769622142203,water
288,2023-10-28 11:13:12,G12,24.0,28.3,4.300000000000001,14:25.1,AHR2,1698491591957848.0,-0.43,-0.47,135.29,15.18,32.80286017115512,-79.82361653826717,0.7393646123114594,0.5025770773559504,water
289,2023-10-28 11:13:12,G32,28.1,30.8,2.6999999999999997,14:25.1,AHR2,1698491591957848.0,-0.43,-0.47,135.29,15.18,32.80286017115512,-79.82360750861983,0.7393646123114592,-0.5025770773559508,water
290,2023-10-28 11:13:13,G10,33.2,34.4,1.1999999999999955,14:26.1,AHR2,1698491592971974.0,-1.01,-0.19,135.25,15.25,32.80317257154928,-79.82365564860413,33.338859909088434,7.873838272317602,water
291,2023-10-28 11:13:13,G12,23.9,31.5,7.600000000000001,14:26.1,AHR2,1698491592971974.0,-1.01,-0.19,135.25,15.25,32.80282419798065,-79.82358945083509,0.7427740521128527,0.5048946163107138,water
292,2023-10-28 11:13:13,G32,26.9,30.1,3.200000000000003,14:26.1,AHR2,1698491592971974.0,-1.01,-0.19,135.25,15.25,32.80282419798065,-79.82358037954923,0.7427740521128525,-0.5048946163107141,water
293,2023-10-28 11:13:14,G10,33.2,36.5,3.299999999999997,14:27.1,AHR2,1698491593987599.0,-0.85,-0.35,134.82,15.38,32.80313864517717,-79.82362728623835,33.6230602765318,7.940959575694034,water
294,2023-10-28 11:13:14,G12,22.5,30.1,7.600000000000001,14:27.1,AHR2,1698491593987599.0,-0.85,-0.35,134.82,15.38,32.80278730201012,-79.82356052415996,0.7491059020655357,0.5091986397796315,water
295,2023-10-28 11:13:14,G32,27.8,27.2,-0.6000000000000014,14:27.1,AHR2,1698491593987599.0,-0.85,-0.35,134.82,15.38,32.80278730201012,-79.82355137554502,0.7491059020655355,-0.5091986397796319,water
296,2023-10-28 11:13:15,G10,33.3,35.2,1.9000000000000057,14:28.1,AHR2,1698491595001849.0,-0.72,0.04,134.92,15.47,32.80310576741222,-79.82359840029977,33.81981453744486,7.987428208216063,water
297,2023-10-28 11:13:15,G12,23.2,30.2,7.0,14:28.1,AHR2,1698491595001849.0,-0.72,0.04,134.92,15.47,32.80275236840644,-79.82353124754536,0.7534894940674035,0.5121783507638131,water
298,2023-10-28 11:13:15,G32,27.3,31.4,4.099999999999998,14:28.1,AHR2,1698491595001849.0,-0.72,0.04,134.92,15.47,32.80275236840644,-79.8235220453949,0.7534894940674032,-0.5121783507638135,water
299,2023-10-28 11:13:16,G10,33.6,34.6,1.0,14:29.1,AHR2,1698491596015885.0,-1.0,-0.09,135.07,15.26,32.8030642890646,-79.82356917263819,33.36072195694092,7.879001563130831,water
300,2023-10-28 11:13:16,G12,24.2,27.8,3.6000000000000014,14:29.1,AHR2,1698491596015885.0,-1.0,-0.09,135.07,15.26,32.80271568747459,-79.82350293145977,0.7432611282130901,0.5052257023254229,water
301,2023-10-28 11:13:16,G32,27.1,30.5,3.3999999999999986,14:29.1,AHR2,1698491596015885.0,-1.0,-0.09,135.07,15.26,32.80271568747459,-79.82349385422539,0.7432611282130898,-0.5052257023254233,water
302,2023-10-28 11:13:17,G10,33.8,33.6,-0.1999999999999957,14:30.2,AHR2,1698491597031633.0,-0.55,0.38,134.7,15.24,32.80302825807027,-79.82353880127377,33.316997861235954,7.868674981504374,water
303,2023-10-28 11:13:17,G32,27.2,30.6,3.400000000000002,14:30.2,AHR2,1698491597031633.0,-0.55,0.38,134.7,15.24,32.80268011351281,-79.82346358157676,0.7422869760126153,-0.504563530296005,water
304,2023-10-28 11:13:18,G10,34.0,37.5,3.5,14:31.2,AHR2,1698491598048271.0,-0.4,0.48,134.86,15.4,32.802995094885375,-79.82350969498435,33.66678228735713,7.951285664921977,water
305,2023-10-28 11:13:18,G32,27.7,40.4,12.7,14:31.2,AHR2,1698491598048271.0,-0.4,0.48,134.86,15.4,32.80264329541641,-79.82343368557996,0.7500800078158764,-0.50986078023495,water
306,2023-10-28 11:13:19,G10,33.6,41.6,8.0,14:32.1,AHR2,1698491598963347.0,-1.04,0.42,134.95,15.27,32.80295487479522,-79.82348121638695,33.3825840047934,7.88416485394406,water
307,2023-10-28 11:13:19,G32,28.2,40.0,11.8,14:32.1,AHR2,1698491598963347.0,-1.04,0.42,134.95,15.27,32.80260604518883,-79.82340584861628,0.7437482043133269,-0.5055567883401324,water
308,2023-10-28 11:13:20,G10,33.6,43.7,10.1,14:33.1,AHR2,1698491599976487.0,-1.24,-0.11,134.41,15.56,32.80292133477899,-79.82345369689487,34.01656879835793,8.033896840738095,water
309,2023-10-28 11:13:20,G32,28.2,34.4,6.199999999999999,14:33.1,AHR2,1698491599976487.0,-1.24,-0.11,134.41,15.56,32.80256588054209,-79.82337689777842,0.7578730860692708,-0.515158061747995,water
310,2023-10-28 11:13:21,G10,33.3,40.2,6.900000000000006,14:34.1,AHR2,1698491600992064.0,-1.09,0.67,134.78,14.93,32.80286820015628,-79.82341910101574,32.6392910568461,7.708616905482397,water
311,2023-10-28 11:13:21,G32,27.8,35.5,7.699999999999999,14:34.1,AHR2,1698491600992064.0,-1.09,0.67,134.78,14.93,32.80252713785364,-79.82334541137557,0.7271879885063305,-0.4943001164328243,water
312,2023-10-28 11:13:22,G10,33.2,43.6,10.4,14:35.1,AHR2,1698491602008168.0,-0.86,0.23,134.3,15.26,32.8028367990341,-79.8233897375858,33.36072195694092,7.879001563130831,water
313,2023-10-28 11:13:22,G32,27.2,32.7,5.500000000000004,14:35.1,AHR2,1698491602008168.0,-0.86,0.23,134.3,15.26,32.802488198336164,-79.823314419173,0.7432611282130898,-0.5052257023254233,water
314,2023-10-28 11:13:23,G10,33.6,42.0,8.399999999999999,14:36.2,AHR2,1698491603022105.0,-0.59,0.33,134.28,14.91,32.80279328437533,-79.82335693570961,32.59556696114113,7.6982903238559395,water
315,2023-10-28 11:13:23,G12,23.1,27.1,4.0,14:36.2,AHR2,1698491603022105.0,-0.59,0.33,134.28,14.91,32.802452679250244,-79.82329221382591,0.7262138363058565,0.4936379444034057,water
316,2023-10-28 11:13:23,G32,27.7,33.2,5.500000000000004,14:36.2,AHR2,1698491603022105.0,-0.59,0.33,134.28,14.91,32.802452679250244,-79.82328334478521,0.7262138363058561,-0.4936379444034061,water
317,2023-10-28 11:13:24,G10,33.5,40.7,7.200000000000003,14:37.2,AHR2,1698491604035790.0,-0.55,0.45,134.69,15.21,32.80276615257316,-79.82332865954024,33.25141380255815,7.853185601463202,water
318,2023-10-28 11:13:24,G12,24.6,25.9,1.2999999999999972,14:37.2,AHR2,1698491604035790.0,-0.55,0.45,134.69,15.21,32.802418694355254,-79.82326263540452,0.7408257941620375,0.5035703038259774,water
319,2023-10-28 11:13:24,G32,27.8,38.2,10.400000000000002,14:37.2,AHR2,1698491604035790.0,-0.55,0.45,134.69,15.21,32.802418694355254,-79.82325358791218,0.7408257941620372,-0.5035703038259779,water
320,2023-10-28 11:13:25,G10,33.0,40.5,7.5,14:38.1,AHR2,1698491604949866.0,-0.68,0.21,134.9,15.06,32.802725560923925,-79.82329825786503,32.92349142428946,7.7757382088588285,water
321,2023-10-28 11:13:25,G12,24.4,29.2,4.800000000000001,14:38.1,AHR2,1698491604949866.0,-0.68,0.21,134.9,15.06,32.80238152945046,-79.82323288485325,0.7335198384590137,0.4986041399017417,water
322,2023-10-28 11:13:25,G32,27.1,38.1,11.0,14:38.1,AHR2,1698491604949866.0,-0.68,0.21,134.9,15.06,32.80238152945046,-79.82322392658644,0.7335198384590135,-0.4986041399017421,water
323,2023-10-28 11:13:26,G10,33.6,42.8,9.199999999999996,14:39.1,AHR2,1698491605966568.0,-0.73,-0.03,135.02,14.92,32.80268451629984,-79.82326711056275,32.61742900899362,7.703453614669169,water
324,2023-10-28 11:13:26,G12,25.9,28.3,2.400000000000002,14:39.1,AHR2,1698491605966568.0,-0.73,-0.03,135.02,14.92,32.8023436831467,-79.82320234526969,0.7267009124060936,0.4939690304181148,water
325,2023-10-28 11:13:26,G32,27.7,40.2,12.500000000000004,14:39.1,AHR2,1698491605966568.0,-0.73,-0.03,135.02,14.92,32.8023436831467,-79.82319347028047,0.7267009124060932,-0.4939690304181152,water
326,2023-10-28 11:13:27,G10,33.5,41.4,7.899999999999999,14:40.1,AHR2,1698491606980178.0,-0.74,0.67,135.17,15.08,32.80265312272058,-79.82323799464467,32.967213435114786,7.786064298086772,water
327,2023-10-28 11:13:27,G12,24.2,28.1,3.900000000000002,14:40.1,AHR2,1698491606980178.0,-0.74,0.67,135.17,15.08,32.802308634659866,-79.82317253481831,0.7344939442093545,0.4992662803570596,
328,2023-10-28 11:13:27,G32,26.5,40.0,13.5,14:40.1,AHR2,1698491606980178.0,-0.74,0.67,135.17,15.08,32.802308634659866,-79.82316356465502,0.7344939442093542,-0.4992662803570601,
329,2023-10-28 11:13:28,G10,33.6,41.9,8.299999999999997,14:41.1,AHR2,1698491607994537.0,-0.77,0.11,135.05,15.16,32.80261761806284,-79.82321154630726,33.142105648175374,7.827369639795573,water
330,2023-10-28 11:13:28,G12,24.5,29.1,4.600000000000001,14:41.1,AHR2,1698491607994537.0,-0.77,0.11,135.05,15.16,32.80227130262658,-79.82314573921424,0.7383904601109851,0.5019149053265322,
331,2023-10-28 11:13:28,G32,28.2,40.2,12.000000000000004,14:41.1,AHR2,1698491607994537.0,-0.77,0.11,135.05,15.16,32.80227130262658,-79.82313672146394,0.7383904601109849,-0.5019149053265326,
332,2023-10-28 11:13:29,G10,33.4,41.7,8.300000000000004,14:42.1,AHR2,1698491609009637.0,-0.83,-0.73,134.76,15.11,32.802577980995395,-79.8231850505294,33.0327974937926,7.801553678127944,water
333,2023-10-28 11:13:29,G12,24.3,28.8,4.5,14:42.1,AHR2,1698491609009637.0,-0.83,-0.73,134.76,15.11,32.80223280791418,-79.82311946047908,0.7359551260599326,0.5002595068270869,
334,2023-10-28 11:13:29,G32,27.8,37.1,9.3,14:42.1,AHR2,1698491609009637.0,-0.83,-0.73,134.76,15.11,32.80223280791418,-79.82311047247079,0.7359551260599323,-0.5002595068270872,
335,2023-10-28 11:13:30,G10,33.3,40.6,7.300000000000004,14:43.2,AHR2,1698491610022834.0,-0.32,-0.21,135.0,14.88,32.80253718175755,-79.82315516383167,32.529982902463324,7.682800943814768,water
336,2023-10-28 11:13:30,G12,23.1,29.9,6.799999999999997,14:43.2,AHR2,1698491610022834.0,-0.32,-0.21,135.0,14.88,32.80219726292513,-79.82309057217194,0.7247526544552784,0.4926447179333786,
337,2023-10-28 11:13:30,G32,27.2,38.3,11.099999999999998,14:43.2,AHR2,1698491610022834.0,-0.32,-0.21,135.0,14.88,32.80219726292513,-79.82308172097623,0.724752654455278,-0.492644717933379,
338,2023-10-28 11:13:31,G10,34.1,40.0,5.899999999999999,14:44.2,AHR2,1698491611036037.0,-1.47,-0.2,134.5,15.36,32.802511506435565,-79.82313178456484,33.57933618082684,7.930632994067577,water
339,2023-10-28 11:13:31,G12,23.7,29.3,5.600000000000001,14:44.2,AHR2,1698491611036037.0,-1.47,-0.2,134.5,15.36,32.80216062263566,-79.82306510930518,0.7481317498650614,0.5085364677502133,
340,2023-10-28 11:13:31,G32,26.6,38.2,11.6,14:44.2,AHR2,1698491611036037.0,-1.47,-0.2,134.5,15.36,32.80216062263566,-79.82305597258728,0.7481317498650611,-0.5085364677502138,
341,2023-10-28 11:13:32,G10,33.0,41.0,8.0,14:45.1,AHR2,1698491611950262.0,-1.18,0.0,133.87,15.1,32.802468604552914,-79.82310053173612,33.01093753081975,7.796390879713229,
342,2023-10-28 11:13:32,G12,21.5,28.8,7.300000000000001,14:45.1,AHR2,1698491611950262.0,-1.18,0.0,133.87,15.1,32.802123660318806,-79.82303498509101,0.735468096409829,0.4999284523864779,water
343,2023-10-28 11:13:32,G32,27.0,39.1,12.1,14:45.1,AHR2,1698491611950262.0,-1.18,0.0,133.87,15.1,32.802123660318806,-79.82302600303068,0.7354680964098287,-0.4999284523864783,water
344,2023-10-28 11:13:33,G10,33.2,40.5,7.299999999999997,14:46.1,AHR2,1698491612965866.0,-0.05,0.74,134.31,15.14,32.80243332893644,-79.82306704189463,33.09838363735005,7.81704355056763,
345,2023-10-28 11:13:33,G12,22.0,29.0,7.0,14:46.1,AHR2,1698491612965866.0,-0.05,0.74,134.31,15.14,32.80208747108453,-79.82300132161619,0.7374163543606442,0.5012527648712142,water
346,2023-10-28 11:13:33,G32,27.5,38.4,10.9,14:46.1,AHR2,1698491612965866.0,-0.05,0.74,134.31,15.14,32.80208747108453,-79.82299231576236,0.7374163543606439,-0.5012527648712145,water
347,2023-10-28 11:13:34,G10,33.5,41.4,7.899999999999999,14:47.1,AHR2,1698491613981008.0,0.09,0.48,134.14,15.04,32.802391849016104,-79.82303424714821,32.87976732858449,7.765411627232371,
348,2023-10-28 11:13:34,G12,21.3,26.9,5.599999999999998,14:47.1,AHR2,1698491613981008.0,0.09,0.48,134.14,15.04,32.802048275722115,-79.82296896095518,0.7325456862585393,0.4979419678723235,water
349,2023-10-28 11:13:34,G32,27.9,36.4,8.5,14:47.1,AHR2,1698491613981008.0,0.09,0.48,134.14,15.04,32.802048275722115,-79.8229600145854,0.732545686258539,-0.4979419678723238,water
350,2023-10-28 11:13:35,G10,33.7,42.2,8.5,14:48.1,AHR2,1698491614996100.0,-0.07,0.4,133.77,15.13,32.80235673394468,-79.823004342877,33.07652158949756,7.811880259754401,
351,2023-10-28 11:13:35,G12,21.3,28.3,7.0,14:48.1,AHR2,1698491614996100.0,-0.07,0.4,133.77,15.13,32.80201110483468,-79.82293866600794,0.7369292782604071,0.5009216788565051,water
352,2023-10-28 11:13:35,G32,27.7,37.9,10.2,14:48.1,AHR2,1698491614996100.0,-0.07,0.4,133.77,15.13,32.80201110483468,-79.82292966610261,0.7369292782604068,-0.5009216788565054,water
353,2023-10-28 11:13:36,G10,33.1,41.7,8.600000000000001,14:49.1,AHR2,1698491616010333.0,0.54,1.3,134.66,15.22,32.80232499906166,-79.82297350561022,33.27327585041063,7.858348892276431,water
354,2023-10-28 11:13:36,G12,22.9,28.9,6.0,14:49.1,AHR2,1698491616010333.0,0.54,1.3,134.66,15.22,32.80197731412416,-79.82290743806513,0.7413128702622747,0.5039013898406866,water
355,2023-10-28 11:13:36,G32,26.6,37.0,10.4,14:49.1,AHR2,1698491616010333.0,0.54,1.3,134.66,15.22,32.80197731412416,-79.82289838462427,0.7413128702622744,-0.503901389840687,water
356,2023-10-28 11:13:37,G10,33.6,42.9,9.299999999999995,14:50.2,AHR2,1698491617025562.0,0.18,0.03,133.75,15.06,32.802281753511416,-79.82294452712027,32.92349142428946,7.7757382088588285,water
357,2023-10-28 11:13:37,G12,22.1,27.3,5.199999999999999,14:50.2,AHR2,1698491617025562.0,0.18,0.03,133.75,15.06,32.80193772375545,-79.82287915410849,0.7335198384590137,0.4986041399017417,water
358,2023-10-28 11:13:37,G32,27.3,38.6,11.3,14:50.2,AHR2,1698491617025562.0,0.18,0.03,133.75,15.06,32.80193772375545,-79.82287019584167,0.7335198384590135,-0.4986041399017421,water
359,2023-10-28 11:13:38,G10,33.3,41.6,8.300000000000004,14:51.2,AHR2,1698491618038602.0,-0.33,-0.51,133.88,15.35,32.80225078448356,-79.82291899146267,33.55747621785399,7.925470195652861,water
360,2023-10-28 11:13:38,G12,22.8,27.9,5.099999999999998,14:51.2,AHR2,1698491618038602.0,-0.33,-0.51,133.88,15.35,32.801900130134555,-79.82285235960825,0.7476447202149578,0.5082054133096043,water
361,2023-10-28 11:13:38,G32,27.0,39.5,12.5,14:51.2,AHR2,1698491618038602.0,-0.33,-0.51,133.88,15.35,32.801900130134555,-79.82284322883831,0.7476447202149574,-0.5082054133096048,water
362,2023-10-28 11:13:39,G10,33.6,40.7,7.100000000000001,14:52.1,AHR2,1698491618954856.0,-0.91,-0.19,133.11,15.22,32.80221256784548,-79.82289216600665,33.27327585041063,7.858348892276431,water
363,2023-10-28 11:13:39,G32,27.1,38.8,11.699999999999996,14:52.1,AHR2,1698491618954856.0,-0.91,-0.19,133.11,15.22,32.8018648833477,-79.8228170450207,0.7413128702622744,-0.503901389840687,water
364,2023-10-28 11:13:40,G10,33.5,42.9,9.4,14:53.1,AHR2,1698491619970389.0,-0.88,-0.34,133.2,15.16,32.8021738437634,-79.82286300782283,33.142105648175374,7.827369639795573,water
365,2023-10-28 11:13:40,G12,24.1,29.2,5.099999999999998,14:53.1,AHR2,1698491619970389.0,-0.88,-0.34,133.2,15.16,32.8018275300559,-79.82279720072981,0.7383904601109851,0.5019149053265322,water
366,2023-10-28 11:13:40,G32,27.1,39.9,12.799999999999995,14:53.1,AHR2,1698491619970389.0,-0.88,-0.34,133.2,15.16,32.8018275300559,-79.82278818297951,0.7383904601109849,-0.5019149053265326,water
367,2023-10-28 11:13:41,G10,33.4,43.4,10.0,14:54.1,AHR2,1698491620983435.0,-0.06,-0.55,133.52,14.87,32.8021305038026,-79.82283151076113,32.50812085461084,7.677637653001539,water
368,2023-10-28 11:13:41,G12,23.6,28.5,4.899999999999999,14:54.1,AHR2,1698491620983435.0,-0.06,-0.55,133.52,14.87,32.80179081496853,-79.82276696251077,0.724265578355041,0.4923136319186694,water
369,2023-10-28 11:13:41,G32,27.0,39.6,12.6,14:54.1,AHR2,1698491620983435.0,-0.06,-0.55,133.52,14.87,32.80179081496853,-79.82275811726356,0.7242655783550408,-0.4923136319186698,water
370,2023-10-28 11:13:42,G10,33.7,40.8,7.099999999999994,14:55.1,AHR2,1698491621997356.0,-0.77,-0.84,133.19,15.28,32.80210151432477,-79.82280511738567,33.40444396776625,7.889327652358775,water
371,2023-10-28 11:13:42,G12,22.8,29.0,6.199999999999999,14:55.1,AHR2,1698491621997356.0,-0.77,-0.84,133.19,15.28,32.801752459645414,-79.82273878939267,0.7442352339634308,0.5058878427807408,
372,2023-10-28 11:13:42,G32,26.7,38.3,11.599999999999998,14:55.1,AHR2,1698491621997356.0,-0.77,-0.84,133.19,15.28,32.801752459645414,-79.82272970026182,0.7442352339634305,-0.5058878427807413,
373,2023-10-28 11:13:43,G10,33.5,40.1,6.600000000000001,14:56.1,AHR2,1698491623011878.0,-1.14,-0.13,132.83,15.06,32.80206100317102,-79.82277504431616,32.92349142428946,7.7757382088588285,water
374,2023-10-28 11:13:43,G12,24.8,27.3,2.5,14:56.1,AHR2,1698491623011878.0,-1.14,-0.13,132.83,15.06,32.801716974269326,-79.82270967130438,0.7335198384590137,0.4986041399017417,
375,2023-10-28 11:13:43,G32,26.2,36.1,9.900000000000002,14:56.1,AHR2,1698491623011878.0,-1.14,-0.13,132.83,15.06,32.801716974269326,-79.82270071303756,0.7335198384590135,-0.4986041399017421,
376,2023-10-28 11:13:44,G10,33.1,41.9,8.799999999999997,14:57.2,AHR2,1698491624026399.0,1.83,6.03,135.67,14.88,32.802038961531096,-79.822739446379,32.529982902463324,7.682800943814768,water
377,2023-10-28 11:13:44,G12,24.1,27.3,3.1999999999999997,14:57.2,AHR2,1698491624026399.0,1.83,6.03,135.67,14.88,32.80169904460368,-79.82267485471927,0.7247526544552784,0.4926447179333786,
378,2023-10-28 11:13:44,G32,26.4,35.5,9.1,14:57.2,AHR2,1698491624026399.0,1.83,6.03,135.67,14.88,32.80169904460368,-79.82266600352357,0.724752654455278,-0.492644717933379,
379,2023-10-28 11:13:45,G10,34.0,38.0,4.0,14:58.2,AHR2,1698491625041554.0,5.54,7.03,149.08,14.5,32.802002194143554,-79.82270932046433,31.69924384798573,7.486600324498704,water
380,2023-10-28 11:13:45,G12,23.5,28.4,4.899999999999999,14:58.2,AHR2,1698491625041554.0,5.54,7.03,149.08,14.5,32.80167095799682,-79.82264637832327,0.7062441806974666,0.4800637335413343,
381,2023-10-28 11:13:45,G32,26.3,37.0,10.7,14:58.2,AHR2,1698491625041554.0,5.54,7.03,149.08,14.5,32.80167095799682,-79.82263775316622,0.7062441806974663,-0.4800637335413347,
