Unnamed: 0,DateTime,Satellite,Reflected_Signal_Strength,Direct_Signal_Strength,Reflectivity,-1,0,TimeUS,Roll,Pitch,Yaw,Alt,Lat,Lng,Adjust_LAT_M,Adjust_LON_M,Crop
387,2024-03-17 08:14:37,G03,32.6,35.5,2.8999999999999986,14:59.3,AHR2,1710663276994668.0,-1.05,-1.59,155.73,0.3,32.80514968883175,-79.82579216365829,-0.0488559973172263,0.0349829829574272,
388,2024-03-17 08:14:37,G04,35.0,38.8,3.799999999999997,14:59.3,AHR2,1710663276994668.0,-1.05,-1.59,155.73,0.3,32.80514353321354,-79.82580106634592,-0.6248003559891407,1.0260043489049566,
389,2024-03-17 08:14:37,G09,25.3,34.5,9.2,14:59.3,AHR2,1710663276994668.0,-1.05,-1.59,155.73,0.3,32.805151988895815,-79.82579367583125,0.1663472331449747,0.203313689840186,
390,2024-03-17 08:14:37,G27,30.0,37.0,7.0,14:59.3,AHR2,1710663276994668.0,-1.05,-1.59,155.73,0.3,32.80515056044302,-79.82579239581575,0.0326954529734182,0.060826078313836,
391,2024-03-17 08:14:37,G28,27.1,28.3,1.1999999999999993,14:59.3,AHR2,1710663276994668.0,-1.05,-1.59,155.73,0.3,32.80514760462939,-79.82579178550799,-0.2438623391368979,-0.0071116128980332,
392,2024-03-17 08:14:38,G03,32.3,35.3,3.0,15:00.3,AHR2,1710663277994561.0,-1.04,-1.59,155.78,0.31,32.80514996845949,-79.82579207529402,-0.0504845289433315,0.0361490812309258,
393,2024-03-17 08:14:38,G04,35.0,37.1,2.1000000000000014,15:00.3,AHR2,1710663277994561.0,-1.04,-1.59,155.78,0.31,32.80514360765419,-79.8258012747376,-0.6456270138326666,1.060204459893665,
394,2024-03-17 08:14:38,G27,31.8,36.7,4.900000000000002,15:00.3,AHR2,1710663277994561.0,-1.04,-1.59,155.78,0.31,32.80515086912444,-79.82579231519004,0.0337853003231983,0.0628536122434546,
395,2024-03-17 08:14:38,G28,25.7,28.7,3.0,15:00.3,AHR2,1710663277994561.0,-1.04,-1.59,155.78,0.31,32.80514781478378,-79.8257916845387,-0.2519910756996125,-0.0073486664258093,
396,2024-03-17 08:14:39,G03,32.6,35.5,2.8999999999999986,15:01.3,AHR2,1710663278995014.0,-1.08,-1.62,155.76,0.05,32.805150997858604,-79.82579186084499,-0.0081426660173124,0.0058304970147692,
397,2024-03-17 08:14:39,G04,35.0,38.2,3.200000000000003,15:01.3,AHR2,1710663278995014.0,-1.08,-1.62,155.76,0.05,32.80514997192225,-79.82579334462622,-0.1041333900786761,0.171000720570644,
398,2024-03-17 08:14:39,G09,21.1,34.4,13.299999999999995,15:01.3,AHR2,1710663278995014.0,-1.08,-1.62,155.76,0.05,32.805151381202606,-79.8257921128738,0.0277245381689494,0.033885614131806,
399,2024-03-17 08:14:39,G27,32.8,37.5,4.700000000000003,15:01.3,AHR2,1710663278995014.0,-1.08,-1.62,155.76,0.05,32.80515114312714,-79.82579189953789,0.0054492420269029,0.0101376794672006,
400,2024-03-17 08:14:39,G28,26.1,27.8,1.6999999999999993,15:01.3,AHR2,1710663278995014.0,-1.08,-1.62,155.76,0.05,32.80515065049155,-79.82579179781993,-0.0406437221800852,-0.0011852687869024,
401,2024-03-17 08:14:40,G03,32.0,35.3,3.299999999999997,15:02.3,AHR2,1710663279994971.0,-1.05,-1.6,155.8,0.23,32.805150931008306,-79.82579207880468,-0.0374562638009723,0.0268202863548197,
402,2024-03-17 08:14:40,G04,35.1,37.0,1.8999999999999984,15:02.3,AHR2,1710663279994971.0,-1.05,-1.6,155.8,0.23,32.80514621170106,-79.82579890419838,-0.4790135959136185,0.7866033171730717,
403,2024-03-17 08:14:40,G27,28.9,36.3,7.399999999999999,15:02.3,AHR2,1710663279994971.0,-1.05,-1.6,155.8,0.23,32.80515159924361,-79.82579225679207,0.0250665134049537,0.0466333257001863,
404,2024-03-17 08:14:40,G28,26.6,26.6,0.0,15:02.3,AHR2,1710663279994971.0,-1.05,-1.6,155.8,0.23,32.80514933311985,-79.82579178888945,-0.1869611226340307,-0.0054522364374129,
405,2024-03-17 08:14:41,G03,31.9,34.5,2.6000000000000014,15:03.3,AHR2,1710663280995182.0,-1.08,-1.45,155.66,0.47,32.80515085478598,-79.82579247194279,-0.0765410592280498,0.054806670983138,
406,2024-03-17 08:14:41,G04,34.5,36.9,2.3999999999999986,15:03.3,AHR2,1710663280995182.0,-1.08,-1.45,155.66,0.47,32.80514121098436,-79.82580641948614,-0.9788538496707628,1.6074067453348515,
407,2024-03-17 08:14:41,G09,20.8,32.8,11.999999999999996,15:03.3,AHR2,1710663280995182.0,-1.08,-1.45,155.66,0.47,32.80515445821959,-79.82579484101363,0.2606106542437189,0.3185247672846917,
408,2024-03-17 08:14:41,G27,33.5,36.4,2.8999999999999986,15:03.3,AHR2,1710663280995182.0,-1.08,-1.45,155.66,0.47,32.80515222031026,-79.82579283565613,0.0512228741596876,0.0952941853299912,
409,2024-03-17 08:14:41,G28,25.5,26.6,1.1000000000000014,15:03.3,AHR2,1710663280995182.0,-1.08,-1.45,155.66,0.47,32.80514758953571,-79.82579187950732,-0.3820509818307762,-0.0111415264026019,
410,2024-03-17 08:14:42,G03,32.0,35.7,3.700000000000003,15:04.3,AHR2,1710663281994958.0,-1.07,-1.43,155.57,0.26,32.80515167808628,-79.82579261598607,-0.0423418611059914,0.0303185829129389,
411,2024-03-17 08:14:42,G04,35.4,38.4,3.0,15:04.3,AHR2,1710663281994958.0,-1.07,-1.43,155.57,0.26,32.80514634321746,-79.8258003316481,-0.5414936004783645,0.8892037011013821,
412,2024-03-17 08:14:42,G27,33.1,36.8,3.699999999999996,15:04.3,AHR2,1710663281994958.0,-1.07,-1.43,155.57,0.26,32.80515243348267,-79.8257928171892,0.0283360570782949,0.052715930510306,
413,2024-03-17 08:14:42,G28,23.0,27.9,4.899999999999999,15:04.3,AHR2,1710663281994958.0,-1.07,-1.43,155.57,0.26,32.80514987177767,-79.82579228825583,-0.2113473444349476,-0.0061633973739786,
414,2024-03-17 08:14:43,G03,30.7,34.8,4.099999999999998,15:05.3,AHR2,1710663282994983.0,-1.09,-1.56,155.68,0.5,32.80515158418645,-79.82579310923401,-0.0814266589597724,0.0583049692788807,
415,2024-03-17 08:14:43,G04,34.8,37.6,2.8000000000000043,15:05.3,AHR2,1710663282994983.0,-1.09,-1.56,155.68,0.5,32.80514132482291,-79.82580794704613,-1.041333885269677,1.7100071802253476,
416,2024-03-17 08:14:43,G09,21.3,33.3,11.999999999999996,15:05.3,AHR2,1710663282994983.0,-1.09,-1.56,155.68,0.5,32.80515541762651,-79.82579562952215,0.2772453775582163,0.3388561362687103,
417,2024-03-17 08:14:43,G27,31.0,36.6,5.600000000000001,15:05.3,AHR2,1710663282994983.0,-1.09,-1.56,155.68,0.5,32.80515303687187,-79.8257934961631,0.0544924194570294,0.1013767931613748,
418,2024-03-17 08:14:43,G28,24.4,26.7,2.3000000000000007,15:05.3,AHR2,1710663282994983.0,-1.09,-1.56,155.68,0.5,32.80514811051591,-79.82579247898352,-0.4064372157444659,-0.0118526876924053,
419,2024-03-17 08:14:44,G03,31.1,35.5,4.399999999999999,15:06.3,AHR2,1710663283994974.0,-1.02,-1.75,155.52,0.36,32.80515215584432,-79.82579343469607,-0.0586271967806715,0.0419795795489127,
420,2024-03-17 08:14:44,G04,35.2,37.4,2.199999999999996,15:06.3,AHR2,1710663283994974.0,-1.02,-1.75,155.52,0.36,32.805144769102256,-79.82580411792122,-0.7497604271869689,1.231205218685948,
421,2024-03-17 08:14:44,G27,32.0,37.3,5.299999999999997,15:06.3,AHR2,1710663283994974.0,-1.02,-1.75,155.52,0.36,32.80515320177787,-79.82579371328502,0.0392345435681018,0.0729912939766032,
422,2024-03-17 08:14:44,G28,25.3,28.9,3.599999999999998,15:06.3,AHR2,1710663283994974.0,-1.02,-1.75,155.52,0.36,32.805149654801426,-79.8257929809157,-0.2926348069642775,-0.0085339354776399,
423,2024-03-17 08:14:45,G03,31.5,35.6,4.100000000000001,15:07.3,AHR2,1710663284995235.0,-1.49,-5.45,155.45,0.61,32.80515141623691,-79.82579418154155,-0.0993405262605578,0.0711320641883531,
424,2024-03-17 08:14:45,G04,35.5,37.9,2.3999999999999986,15:07.3,AHR2,1710663284995235.0,-1.49,-5.45,155.45,0.61,32.8051388998131,-79.82581228367276,-1.2704273698218074,2.086208808798622,
425,2024-03-17 08:14:45,G27,31.6,35.9,4.299999999999997,15:07.3,AHR2,1710663284995235.0,-1.49,-5.45,155.45,0.61,32.805153188513174,-79.82579465359505,0.0664807532966165,0.1236796905572906,
426,2024-03-17 08:14:45,G28,26.0,25.2,-0.8000000000000007,15:07.3,AHR2,1710663284995235.0,-1.49,-5.45,155.45,0.61,32.80514717835875,-79.82579341263593,-0.4958534148365104,-0.0144602793238425,
427,2024-03-17 08:14:46,G03,31.2,34.5,3.3000000000000007,15:08.3,AHR2,1710663285995232.0,-0.54,2.84,159.84,0.57,32.80515061009972,-79.8257926453631,-0.0928263900493229,0.0664676641438648,
428,2024-03-17 08:14:46,G04,34.2,36.8,2.5999999999999943,15:08.3,AHR2,1710663285995232.0,-0.54,2.84,159.84,0.57,32.80513891442555,-79.8258095604687,-1.187120614311031,1.949408160995047,
429,2024-03-17 08:14:46,G09,19.8,32.8,12.999999999999996,15:08.3,AHR2,1710663285995232.0,-0.54,2.84,159.84,0.57,32.805154980221296,-79.82579551849155,0.3160597264503397,0.3862959904989539,
430,2024-03-17 08:14:46,G27,31.8,36.5,4.699999999999999,15:08.3,AHR2,1710663285995232.0,-0.54,2.84,159.84,0.57,32.80515226616107,-79.82579308646224,0.0621213574014932,0.1155695427537606,
431,2024-03-17 08:14:46,G28,24.0,27.8,3.8000000000000007,15:08.3,AHR2,1710663285995232.0,-0.54,2.84,159.84,0.57,32.80514665011539,-79.82579192687754,-0.4633384201345602,-0.013512063799788,
432,2024-03-17 08:14:47,G03,32.4,34.8,2.3999999999999986,15:09.3,AHR2,1710663286995699.0,0.62,0.08,159.12,1.57,32.80514989075769,-79.82579219202513,-0.255679717675682,0.1830776096521203,
433,2024-03-17 08:14:47,G04,35.0,38.2,3.200000000000003,15:09.3,AHR2,1710663286995699.0,0.62,0.08,159.12,1.57,32.805117676355046,-79.82583878275675,-3.269788508987057,5.369422725294483,
434,2024-03-17 08:14:47,G27,33.0,36.3,3.299999999999997,15:09.3,AHR2,1710663286995699.0,0.62,0.08,159.12,1.57,32.80515445219009,-79.82579340698251,0.1711062028115548,0.3183231411615658,
435,2024-03-17 08:14:47,G28,26.3,26.1,-0.1999999999999993,15:09.3,AHR2,1710663286995699.0,0.62,0.08,159.12,1.57,32.8051389834318,-79.82579021303852,-1.276212900074584,-0.0372174405975491,
436,2024-03-17 08:14:48,G03,32.1,35.5,3.3999999999999986,15:10.3,AHR2,1710663287995652.0,-0.32,-0.92,158.38,2.31,32.80514918285211,-79.82579463573406,-0.3761911550756072,0.269368951395955,
437,2024-03-17 08:14:48,G04,35.1,37.4,2.299999999999997,15:10.3,AHR2,1710663287995652.0,-0.32,-0.92,158.38,2.31,32.80510178459335,-79.82586318642434,-4.810962430774703,7.900232976946315,
438,2024-03-17 08:14:48,G09,22.9,33.1,10.200000000000005,15:10.3,AHR2,1710663287995652.0,-0.32,-0.92,158.38,2.31,32.8051668933449,-79.825806279465,1.280873612590744,1.5655153107824349,
439,2024-03-17 08:14:48,G27,31.5,37.1,5.600000000000001,15:10.3,AHR2,1710663287995652.0,-0.32,-0.92,158.38,2.31,32.80515589425867,-79.82579642334639,0.2517549716553136,0.4683607728038985,
440,2024-03-17 08:14:48,G28,25.7,28.2,2.5,15:10.3,AHR2,1710663287995652.0,-0.32,-0.92,158.38,2.31,32.80513313449447,-79.82579172397685,-1.8777398902263849,-0.05475941578248,
441,2024-03-17 08:14:49,G03,31.8,35.0,3.1999999999999997,15:11.3,AHR2,1710663289001618.0,0.54,0.89,157.46,3.27,32.80514745131162,-79.82579484861384,-0.5325303464907315,0.3813144968597223,
442,2024-03-17 08:14:49,G04,35.1,38.3,3.199999999999996,15:11.3,AHR2,1710663289001618.0,0.54,0.89,157.46,3.27,32.805080355073954,-79.82589188790453,-6.8103235699399525,11.183446893442175,
443,2024-03-17 08:14:49,G09,25.5,34.3,8.799999999999997,15:11.3,AHR2,1710663289001618.0,0.54,0.89,157.46,3.27,32.80517252200965,-79.82581133129823,1.813184758654663,2.21611911827103,
444,2024-03-17 08:14:49,G27,31.9,36.5,4.600000000000001,15:11.3,AHR2,1710663289001618.0,0.54,0.89,157.46,3.27,32.805156951874324,-79.82579737913005,0.3563804211702518,0.6630042234081737,
445,2024-03-17 08:14:49,G28,24.7,27.3,2.6000000000000014,15:11.3,AHR2,1710663289001618.0,0.54,0.89,157.46,3.27,32.80512473350623,-79.82579072677564,-2.6580993754644577,-0.0775165770561866,
446,2024-03-17 08:14:50,G03,31.9,35.3,3.3999999999999986,15:12.3,AHR2,1710663290017259.0,0.24,1.21,156.67,4.07,32.80514513472344,-79.82579521036575,-0.6628130318881728,0.4746024699475122,
447,2024-03-17 08:14:50,G04,35.1,37.3,2.199999999999996,15:12.3,AHR2,1710663290017259.0,0.24,1.21,156.67,4.07,32.80506162350094,-79.8259159901615,-8.47645818360879,13.919459034118704,
448,2024-03-17 08:14:50,G09,24.7,34.0,9.3,15:12.3,AHR2,1710663290017259.0,0.24,1.21,156.67,4.07,32.80517633892675,-79.82581572551214,2.256777468508528,2.758289065564324,
449,2024-03-17 08:14:50,G27,32.1,36.8,4.699999999999996,15:12.3,AHR2,1710663290017259.0,0.24,1.21,156.67,4.07,32.80515695958327,-79.82579835996866,0.4435683130887074,0.825207131138551,
450,2024-03-17 08:14:50,G28,25.4,27.0,1.6000000000000014,15:12.3,AHR2,1710663290017259.0,0.24,1.21,156.67,4.07,32.805116859044105,-79.82579008012652,-3.308399075699097,-0.0964808818854766,
451,2024-03-17 08:14:51,G03,31.5,34.5,3.0,15:13.3,AHR2,1710663291035408.0,1.08,-0.55,157.01,5.059999,32.805142673640646,-79.82579664366715,-0.8240376240453292,0.590046171221896,
452,2024-03-17 08:14:51,G04,35.2,37.2,2.0,15:13.3,AHR2,1710663291035408.0,1.08,-0.55,157.01,5.059999,32.80503884890352,-79.8259468022958,-10.538296813571163,17.305269206605868,
453,2024-03-17 08:14:51,G27,32.5,36.5,4.0,15:13.3,AHR2,1710663291035408.0,1.08,-0.55,157.01,5.059999,32.80515737481405,-79.82580055938874,0.5514631747329339,1.0259329418305725,
454,2024-03-17 08:14:51,G28,26.1,26.8,0.6999999999999993,15:13.3,AHR2,1710663291035408.0,1.08,-0.55,157.01,5.059999,32.80510752010216,-79.82579026553343,-4.11314380160348,-0.1199491754835016,
455,2024-03-17 08:14:52,G03,32.0,36.0,4.0,15:14.3,AHR2,1710663291953643.0,0.45,0.82,156.56,5.45,32.805142647672746,-79.82579882460031,-0.8875505515997147,0.6355241428982199,
456,2024-03-17 08:14:52,G04,35.0,38.5,3.5,15:14.3,AHR2,1710663291953643.0,0.45,0.82,156.56,5.45,32.8050308206145,-79.82596055674676,-11.350538952202127,18.63907761214032,
457,2024-03-17 08:14:52,G09,21.7,34.6,12.900000000000002,15:14.3,AHR2,1710663291953643.0,0.45,0.82,156.56,5.45,32.80518443216777,-79.82582629574017,3.02197450962384,3.693531756065586,
458,2024-03-17 08:14:52,G27,32.5,37.2,4.700000000000003,15:14.3,AHR2,1710663291953643.0,0.45,0.82,156.56,5.45,32.80515848194327,-79.82580304212723,0.5939673512944129,1.1050070067868083,
459,2024-03-17 08:14:52,G28,26.2,28.6,2.400000000000002,15:14.3,AHR2,1710663291953643.0,0.45,0.82,156.56,5.45,32.805104784665296,-79.82579195487018,-4.430165496571186,-0.1291942913257764,
460,2024-03-17 08:14:53,G03,33.2,35.4,2.199999999999996,15:15.3,AHR2,1710663292968348.0,0.17,-0.19,156.57,6.36,32.805139704655744,-79.82580139288089,-1.0357471237115696,0.7416392247964702,
461,2024-03-17 08:14:53,G04,35.7,37.8,2.0999999999999943,15:15.3,AHR2,1710663292968348.0,0.17,-0.19,156.57,6.36,32.805009205551265,-79.82599012985501,-13.24576729869644,21.7512917890876,
462,2024-03-17 08:14:53,G09,23.5,34.3,10.799999999999995,15:15.3,AHR2,1710663292968348.0,0.17,-0.19,156.57,6.36,32.805188466013384,-79.8258334509468,3.5265612765730148,4.310250143822346,
463,2024-03-17 08:14:53,G27,31.3,36.7,5.400000000000002,15:15.3,AHR2,1710663292968348.0,0.17,-0.19,156.57,6.36,32.80515818281439,-79.82580631461899,0.6931435900444607,1.2895128360832122,
464,2024-03-17 08:14:53,G28,25.3,26.5,1.1999999999999993,15:15.3,AHR2,1710663292968348.0,0.17,-0.19,156.57,6.36,32.80509551956634,-79.82579337609445,-5.1698814928000525,-0.1507661906124046,
465,2024-03-17 08:14:54,G03,32.3,36.6,4.300000000000004,15:16.3,AHR2,1710663293983554.0,-0.96,-0.04,156.79,7.08,32.80513762404285,-79.82580368239847,-1.153001478445656,0.8255983560923197,
466,2024-03-17 08:14:54,G04,35.5,38.1,2.6000000000000014,15:16.3,AHR2,1710663293983554.0,-0.96,-0.04,156.79,7.08,32.80499235146082,-79.82601378581582,-14.745287656523685,24.21370141106453,
467,2024-03-17 08:14:54,G09,23.5,34.9,11.4,15:16.3,AHR2,1710663293983554.0,-0.96,-0.04,156.79,7.08,32.80519190555196,-79.82583936967826,3.925794503920056,4.798202837859596,
468,2024-03-17 08:14:54,G27,31.6,37.6,6.0,15:16.3,AHR2,1710663293983554.0,-0.96,-0.04,156.79,7.08,32.805158194067666,-79.8258091613143,0.771612651196654,1.4354953756961968,
469,2024-03-17 08:14:54,G28,25.5,27.1,1.6000000000000014,15:16.3,AHR2,1710663293983554.0,-0.96,-0.04,156.79,7.08,32.80508843686988,-79.82579475805159,-5.755150912924241,-0.1678340559158826,
470,2024-03-17 08:14:55,G03,32.1,34.5,2.3999999999999986,15:17.3,AHR2,1710663294998749.0,-0.12,-0.39,155.33,8.1,32.80513601221932,-79.82580363753345,-1.3191119372719249,0.9445405468010302,
471,2024-03-17 08:14:55,G04,35.5,37.6,2.1000000000000014,15:17.3,AHR2,1710663294998749.0,-0.12,-0.39,155.33,8.1,32.804969810526565,-79.82604401010111,-16.869609735843472,27.70211762428257,
472,2024-03-17 08:14:55,G27,30.9,35.7,4.800000000000004,15:17.3,AHR2,1710663294998749.0,-0.12,-0.39,155.33,8.1,32.8051595457237,-79.82580990578498,0.8827772367782941,1.6423041265586276,
473,2024-03-17 08:14:55,G28,26.8,26.4,-0.4000000000000021,15:17.3,AHR2,1710663294998749.0,-0.12,-0.39,155.33,8.1,32.80507973875537,-79.82579342747498,-6.584283205147336,-0.1920135496598491,
474,2024-03-17 08:14:56,G03,31.7,35.0,3.3000000000000007,15:18.3,AHR2,1710663296012977.0,0.79,1.21,127.67,9.35,32.80513763652655,-79.82580273637349,-1.522678584671356,1.090302969998232,
475,2024-03-17 08:14:56,G04,34.8,37.2,2.4000000000000057,15:18.3,AHR2,1710663296012977.0,0.79,1.21,127.67,9.35,32.80494578641742,-79.82608020347145,-19.472944449017664,31.97713557484594,
476,2024-03-17 08:14:56,G09,22.2,33.2,11.000000000000004,15:18.3,AHR2,1710663296012977.0,0.79,1.21,127.67,9.35,32.805209321859735,-79.82584986576377,5.1844887718600825,6.3366100067516,
477,2024-03-17 08:14:56,G27,30.4,36.7,6.300000000000004,15:18.3,AHR2,1710663296012977.0,0.79,1.21,127.67,9.35,32.805164801745555,-79.82580997194773,1.0190082854208675,1.8957461094620645,
478,2024-03-17 08:14:56,G28,26.0,27.3,1.3000000000000007,15:18.3,AHR2,1710663296012977.0,0.79,1.21,127.67,9.35,32.80507267888369,-79.82579095068878,-7.6003762445085,-0.2216452688908624,
479,2024-03-17 08:14:57,G03,32.1,35.1,3.0,15:19.3,AHR2,1710663297027212.0,0.37,0.66,126.44,10.49,32.80513513311537,-79.82580458021856,-1.70833126770186,1.223238228781022,
480,2024-03-17 08:14:57,G04,34.8,38.2,3.4000000000000057,15:19.3,AHR2,1710663297027212.0,0.37,0.66,126.44,10.49,32.80491989167078,-79.82611587751003,-21.847184436273,35.875949858348626,
481,2024-03-17 08:14:57,G08,23.0,27.6,4.600000000000001,15:19.3,AHR2,1710663297027212.0,0.37,0.66,126.44,10.49,32.80506225550821,-79.8257913575635,-8.527052600266703,-0.2486693823609336,
482,2024-03-17 08:14:57,G09,26.1,34.3,8.199999999999996,15:19.3,AHR2,1710663297027212.0,0.37,0.66,126.44,10.49,32.80521555868689,-79.82585745586275,5.816607894258517,7.109201583801515,
483,2024-03-17 08:14:57,G27,30.7,36.5,5.800000000000001,15:19.3,AHR2,1710663297027212.0,0.37,0.66,126.44,10.49,32.80516561045525,-79.82581269799066,1.1432509352638285,2.126885074119031,
484,2024-03-17 08:14:57,G28,26.7,26.4,-0.3000000000000007,15:19.3,AHR2,1710663297027212.0,0.37,0.66,126.44,10.49,32.80506225550821,-79.8257913575635,-8.527052600266703,-0.2486693823609336,
485,2024-03-17 08:14:58,G03,31.7,36.6,4.900000000000002,15:20.4,AHR2,1710663298042341.0,0.76,0.22,116.15,11.43,32.80513227452713,-79.82580481139286,-1.8614134735192875,1.332851633301744,
486,2024-03-17 08:14:58,G04,34.6,38.3,3.699999999999996,15:20.4,AHR2,1710663298042341.0,0.76,0.22,116.15,11.43,32.80489774547115,-79.82614400378696,-23.80489325284458,39.090765183657,
487,2024-03-17 08:14:58,G08,22.9,29.3,6.400000000000002,15:20.4,AHR2,1710663298042341.0,0.76,0.22,116.15,11.43,32.805052866416666,-79.8257904038662,-9.29115499998808,-0.2709524478826919,
488,2024-03-17 08:14:58,G09,23.8,34.6,10.8,15:20.4,AHR2,1710663298042341.0,0.76,0.22,116.15,11.43,32.80521990696892,-79.82586242518146,6.337829500197975,7.746251481924091,
489,2024-03-17 08:14:58,G27,31.6,38.3,6.699999999999996,15:20.4,AHR2,1710663298042341.0,0.76,0.22,116.15,11.43,32.805165482916735,-79.82581365659205,1.245696742047227,2.317473553544513,
490,2024-03-17 08:14:58,G28,23.5,28.4,4.899999999999999,15:20.4,AHR2,1710663298042341.0,0.76,0.22,116.15,11.43,32.805052866416666,-79.8257904038662,-9.29115499998808,-0.2709524478826919,
491,2024-03-17 08:14:59,G03,32.5,35.1,2.6000000000000014,15:21.3,AHR2,1710663298958318.0,-0.76,1.22,81.3,12.47,32.805132733591414,-79.82580774892392,-2.030780917943253,1.4541259649535,
492,2024-03-17 08:14:59,G04,35.1,37.4,2.299999999999997,15:21.3,AHR2,1710663298958318.0,-0.76,1.22,81.3,12.47,32.80487686505359,-79.82617780396612,-25.97086765475804,42.647579988062525,
493,2024-03-17 08:14:59,G08,22.7,28.1,5.400000000000002,15:21.3,AHR2,1710663298958318.0,-0.76,1.22,81.3,12.47,32.80504610024429,-79.8257920304763,-10.136544377727873,-0.2956060373786067,
494,2024-03-17 08:14:59,G09,24.2,33.9,9.7,15:21.3,AHR2,1710663298958318.0,-0.76,1.22,81.3,12.47,32.80522833959065,-79.82587060491167,6.914499864366921,8.451072219510337,
495,2024-03-17 08:14:59,G27,31.7,36.3,4.599999999999998,15:21.3,AHR2,1710663298958318.0,-0.76,1.22,81.3,12.47,32.8051689635675,-79.82581739893558,1.3590409703604067,2.5283372755857374,
496,2024-03-17 08:14:59,G28,27.2,26.5,-0.6999999999999993,15:21.3,AHR2,1710663298958318.0,-0.76,1.22,81.3,12.47,32.80504610024429,-79.8257920304763,-10.136544377727873,-0.2956060373786067,
497,2024-03-17 08:15:00,G03,32.8,35.3,2.5,15:22.3,AHR2,1710663299972324.0,-1.13,1.86,96.84,13.15,32.805132275849616,-79.82580950535556,-2.1415210685184056,1.5334206475514034,
498,2024-03-17 08:15:00,G04,35.2,37.7,2.5,15:22.3,AHR2,1710663299972324.0,-1.13,1.86,96.84,13.15,32.80486245458817,-79.82619973980299,-27.3870803881178,44.97318753529469,
499,2024-03-17 08:15:00,G08,22.9,28.5,5.600000000000001,15:22.3,AHR2,1710663299972324.0,-1.13,1.86,96.84,13.15,32.805040918314205,-79.82579292976807,-10.689298463992468,-0.3117256772673766,
500,2024-03-17 08:15:00,G09,23.7,34.0,10.3,15:22.3,AHR2,1710663299972324.0,-1.13,1.86,96.84,13.15,32.805233095323295,-79.82587578893192,7.291553218259652,8.911916125340367,
501,2024-03-17 08:15:00,G27,32.1,37.3,5.199999999999996,15:22.3,AHR2,1710663299972324.0,-1.13,1.86,96.84,13.15,32.80517048147635,-79.82581968159029,1.4331505901454584,2.666209582799804,
502,2024-03-17 08:15:00,G28,25.5,26.4,0.8999999999999986,15:22.3,AHR2,1710663299972324.0,-1.13,1.86,96.84,13.15,32.805040918314205,-79.82579292976807,-10.689298463992468,-0.3117256772673766,
503,2024-03-17 08:15:01,G03,32.3,34.3,2.0,15:23.3,AHR2,1710663300986977.0,1.08,1.35,95.83,14.17,32.805129805383,-79.82580644402698,-2.3076315273446744,1.652362838260114,
504,2024-03-17 08:15:01,G04,34.8,36.4,1.6000000000000014,15:23.3,AHR2,1710663300986977.0,1.08,1.35,95.83,14.17,32.804839055012174,-79.82622694762472,-29.511402467437588,48.461603748512736,
505,2024-03-17 08:15:01,G08,23.0,28.2,5.199999999999999,15:23.3,AHR2,1710663300986977.0,1.08,1.35,95.83,14.17,32.805031361557056,-79.82578858272791,-11.518430756215563,-0.3359051710113432,
506,2024-03-17 08:15:01,G09,23.6,32.8,9.199999999999996,15:23.3,AHR2,1710663300986977.0,1.08,1.35,95.83,14.17,32.80523844507729,-79.82587786899346,7.857134042304138,9.603182953560594,
507,2024-03-17 08:15:01,G27,31.9,35.7,3.800000000000004,15:23.3,AHR2,1710663300986977.0,1.08,1.35,95.83,14.17,32.8051709744891,-79.82581740959739,1.5443151757270983,2.8730183336622344,
508,2024-03-17 08:15:01,G28,26.3,25.6,-0.6999999999999993,15:23.3,AHR2,1710663300986977.0,1.08,1.35,95.83,14.17,32.805031361557056,-79.82578858272791,-11.518430756215563,-0.3359051710113432,
509,2024-03-17 08:15:02,G03,32.1,35.3,3.199999999999996,15:24.3,AHR2,1710663302002700.0,-0.98,1.51,92.26,15.57,32.805128486223765,-79.82581190292608,-2.5356261103084266,1.8156167077578187,
510,2024-03-17 08:15:02,G04,35.2,37.9,2.699999999999996,15:24.3,AHR2,1710663302002700.0,-0.98,1.51,92.26,15.57,32.8048090096382,-79.82627395238643,-32.42713655171798,53.24962254851177,
511,2024-03-17 08:15:02,G08,23.0,28.1,5.100000000000001,15:24.3,AHR2,1710663302002700.0,-0.98,1.51,92.26,15.57,32.80502031612137,-79.82579227692611,-12.65645465021308,-0.369092687507195,
512,2024-03-17 08:15:02,G09,24.4,34.1,9.700000000000005,15:24.3,AHR2,1710663302002700.0,-0.98,1.51,92.26,15.57,32.80524785954904,-79.82589038469746,8.633420887945707,10.55197987658627,
513,2024-03-17 08:15:02,G27,31.7,37.2,5.500000000000004,15:24.3,AHR2,1710663302002700.0,-0.98,1.51,92.26,15.57,32.80517372284861,-79.82582395189765,1.6968939086323644,3.1568732771697285,
514,2024-03-17 08:15:02,G28,24.9,27.3,2.400000000000002,15:24.3,AHR2,1710663302002700.0,-0.98,1.51,92.26,15.57,32.80502031612137,-79.82579227692611,-12.65645465021308,-0.369092687507195,
515,2024-03-17 08:15:03,G03,31.7,34.0,2.3000000000000007,15:25.3,AHR2,1710663303016189.0,-1.2,1.61,92.53,16.82,32.80512677669325,-79.82581258483815,-2.7391927577078574,1.9613791309550208,
516,2024-03-17 08:15:03,G04,35.0,36.9,1.8999999999999984,15:25.3,AHR2,1710663303016189.0,-1.2,1.61,92.53,16.82,32.804781651696125,-79.8263117288288,-35.03047126489217,57.52464049907514,
517,2024-03-17 08:15:03,G08,22.9,27.3,4.400000000000002,15:25.3,AHR2,1710663303016189.0,-1.2,1.61,92.53,16.82,32.80500992241358,-79.82579138321194,-13.672547689574245,-0.3987244067382083,
518,2024-03-17 08:15:03,G09,24.6,35.1,10.5,15:25.3,AHR2,1710663303016189.0,-1.2,1.61,92.53,16.82,32.80525573361969,-79.82589736732989,9.326534331841248,11.399120217258044,
519,2024-03-17 08:15:03,G27,32.3,35.6,3.3000000000000043,15:25.3,AHR2,1710663303016189.0,-1.2,1.61,92.53,16.82,32.805175645032044,-79.82582560113244,1.833124957274938,3.410315260073165,
520,2024-03-17 08:15:03,G28,26.6,26.1,-0.5,15:25.3,AHR2,1710663303016189.0,-1.2,1.61,92.53,16.82,32.80500992241358,-79.82579138321194,-13.672547689574245,-0.3987244067382083,
521,2024-03-17 08:15:04,G03,32.1,35.8,3.699999999999996,15:26.3,AHR2,1710663304030874.0,1.72,-2.61,90.79,18.13,32.805110910759325,-79.82580540132025,-2.9525305172094067,2.114138088189262,
522,2024-03-17 08:15:04,G04,35.5,38.2,2.700000000000003,15:26.3,AHR2,1710663304030874.0,1.72,-2.61,90.79,18.13,32.80473890629646,-79.8263434203628,-37.75876493203414,62.00485748478084,
523,2024-03-17 08:15:04,G08,22.8,29.4,6.599999999999998,15:26.3,AHR2,1710663304030874.0,1.72,-2.61,90.79,18.13,32.80498495548543,-79.82578254843843,-14.737412760702965,-0.4297784358322739,
524,2024-03-17 08:15:04,G27,32.4,37.6,5.200000000000003,15:26.3,AHR2,1710663304030874.0,1.72,-2.61,90.79,18.13,32.80516358512448,-79.82581943136834,1.975895038048172,3.675922349873871,
525,2024-03-17 08:15:04,G28,26.1,27.9,1.7999999999999972,15:26.3,AHR2,1710663304030874.0,1.72,-2.61,90.79,18.13,32.80498495548543,-79.82578254843843,-14.737412760702965,-0.4297784358322739,
526,2024-03-17 08:15:05,G03,31.7,34.3,2.599999999999998,15:27.4,AHR2,1710663305045456.0,2.55,-3.78,92.64,18.67,32.805105220201106,-79.82579978829035,-3.040471457982626,2.177107561770041,
527,2024-03-17 08:15:05,G04,35.1,37.1,2.0,15:27.4,AHR2,1710663305045456.0,2.55,-3.78,92.64,18.67,32.80472213562855,-79.82635383219717,-38.88340743486468,63.851668370540864,
528,2024-03-17 08:15:05,G08,23.0,27.9,4.899999999999999,15:27.4,AHR2,1710663305045456.0,2.55,-3.78,92.64,18.67,32.80497551336402,-79.82577625473684,-15.176365697915756,-0.442579360242991,
529,2024-03-17 08:15:05,G09,23.1,33.2,10.1,15:27.4,AHR2,1710663305045456.0,2.55,-3.78,92.64,18.67,32.80524836082974,-79.82589389585017,10.352342440328083,12.652888179978987,
530,2024-03-17 08:15:05,G27,32.0,35.8,3.799999999999997,15:27.4,AHR2,1710663305045456.0,2.55,-3.78,92.64,18.67,32.80515946346611,-79.82581423622256,2.0347469508403635,3.785409472114608,
531,2024-03-17 08:15:05,G28,25.3,26.6,1.3000000000000007,15:27.4,AHR2,1710663305045456.0,2.55,-3.78,92.64,18.67,32.80497551336402,-79.82577625473684,-15.176365697915756,-0.442579360242991,
532,2024-03-17 08:15:06,G03,31.8,35.0,3.1999999999999997,15:28.3,AHR2,1710663305960058.0,2.55,-4.39,94.48,18.43,32.80510039957126,-79.82578843289737,-3.001386698956102,2.149121203206075,
533,2024-03-17 08:15:06,G04,34.5,36.9,2.3999999999999986,15:28.3,AHR2,1710663305960058.0,2.55,-4.39,94.48,18.43,32.80472223950998,-79.82633535466115,-38.38356764662006,63.030865706811866,
534,2024-03-17 08:15:06,G09,23.0,34.3,11.299999999999995,15:28.3,AHR2,1710663305960058.0,2.55,-4.39,94.48,18.43,32.80524170014239,-79.82588133072002,10.219264786013005,12.490237389686037,
535,2024-03-17 08:15:06,G27,31.5,36.8,5.299999999999997,15:28.3,AHR2,1710663305960058.0,2.55,-4.39,94.48,18.43,32.80515394554489,-79.82580269510379,2.00859061444564,3.7367486578037608,
536,2024-03-17 08:15:06,G28,25.4,27.7,2.3000000000000007,15:28.3,AHR2,1710663305960058.0,2.55,-4.39,94.48,18.43,32.804972360101715,-79.8257652018638,-14.981276020410604,-0.4368900755763663,
537,2024-03-17 08:15:07,G03,32.3,33.6,1.3000000000000045,15:29.3,AHR2,1710663306973312.0,-0.35,-5.93,107.44,18.45,32.805088504685344,-79.82577683972771,-3.0046438398628257,2.151453455357024,
538,2024-03-17 08:15:07,G04,35.5,37.4,1.8999999999999984,15:29.3,AHR2,1710663306973312.0,-0.35,-5.93,107.44,18.45,32.804709934290734,-79.82632435501758,-38.425221955400495,63.09926755957921,
539,2024-03-17 08:15:07,G08,24.4,27.4,3.0,15:29.3,AHR2,1710663306973312.0,-0.35,-5.93,107.44,18.45,32.80496032628293,-79.82575358348356,-14.997533881144768,-0.4373641939355222,
540,2024-03-17 08:15:07,G09,24.3,34.1,9.8,15:29.3,AHR2,1710663306973312.0,-0.35,-5.93,107.44,18.45,32.80522995857868,-79.82586983836421,10.230354854941057,12.503791945368842,
541,2024-03-17 08:15:07,G27,32.3,36.4,4.100000000000001,15:29.3,AHR2,1710663306973312.0,-0.35,-5.93,107.44,18.45,32.80514210876056,-79.82579111741165,2.010770361113221,3.740803822343442,
542,2024-03-17 08:15:07,G28,25.5,27.0,1.5,15:29.3,AHR2,1710663306973312.0,-0.35,-5.93,107.44,18.45,32.80496032628293,-79.82575358348356,-14.997533881144768,-0.4373641939355222,
543,2024-03-17 08:15:08,G03,32.3,35.5,3.200000000000003,15:30.3,AHR2,1710663307989948.0,1.11,-3.96,103.78,18.46,32.80508751135165,-79.82574292462235,-3.0062720996981342,2.152619359016691,
544,2024-03-17 08:15:08,G04,35.1,37.3,2.199999999999996,15:30.3,AHR2,1710663307989948.0,1.11,-3.96,103.78,18.46,32.80470873580844,-79.82629073661863,-38.44604513741719,63.13346196280317,
545,2024-03-17 08:15:08,G08,23.2,27.0,3.8000000000000007,15:30.3,AHR2,1710663307989948.0,1.11,-3.96,103.78,18.46,32.80495926348892,-79.82571965577529,-15.005661261076911,-0.4376012079006848,
546,2024-03-17 08:15:08,G09,24.9,33.2,8.300000000000004,15:30.3,AHR2,1710663307989948.0,1.11,-3.96,103.78,18.46,32.80522904189934,-79.82583597365614,10.2358988317979,12.510567930576668,
547,2024-03-17 08:15:08,G27,31.9,38.0,6.100000000000001,15:30.3,AHR2,1710663307989948.0,1.11,-3.96,103.78,18.46,32.805141144475094,-79.82575721004356,2.011860026574928,3.7428310178915063,
548,2024-03-17 08:15:08,G28,25.3,28.5,3.1999999999999997,15:30.3,AHR2,1710663307989948.0,1.11,-3.96,103.78,18.46,32.80495926348892,-79.82571965577529,-15.005661261076911,-0.4376012079006848,
549,2024-03-17 08:15:09,G03,32.6,33.6,1.0,15:31.3,AHR2,1710663309004398.0,0.84,-2.77,105.59,18.27,32.805081752390265,-79.8257077323102,-2.975330192938419,2.1304636308300977,
550,2024-03-17 08:15:09,G04,35.1,37.2,2.1000000000000014,15:31.3,AHR2,1710663309004398.0,0.84,-2.77,105.59,18.27,32.80470687540126,-79.82624990597864,-38.05034112112365,62.483663930992535,
551,2024-03-17 08:15:09,G08,22.9,26.6,3.700000000000003,15:31.3,AHR2,1710663309004398.0,0.84,-2.77,105.59,18.27,32.804954824521005,-79.82568470295661,-14.85121623540717,-0.4330972191319499,
552,2024-03-17 08:15:09,G09,24.0,33.1,9.1,15:31.3,AHR2,1710663309004398.0,0.84,-2.77,105.59,18.27,32.8052218262322,-79.82579982364143,10.130546349802948,12.381803529490735,
553,2024-03-17 08:15:09,G27,32.1,36.1,4.0,15:31.3,AHR2,1710663309004398.0,0.84,-2.77,105.59,18.27,32.8051348334938,-79.82572187069944,1.9911530568491569,3.704308114929863,
554,2024-03-17 08:15:09,G28,25.8,24.1,-1.6999999999999993,15:31.3,AHR2,1710663309004398.0,0.84,-2.77,105.59,18.27,32.804954824521005,-79.82568470295661,-14.85121623540717,-0.4330972191319499,
555,2024-03-17 08:15:10,G03,32.3,35.5,3.200000000000003,15:32.3,AHR2,1710663310018186.0,1.58,-2.18,106.06,17.99,32.80507386819744,-79.82566558764675,-2.9297311520984475,2.0978127679642338,
556,2024-03-17 08:15:10,G04,35.1,36.7,1.6000000000000014,15:32.3,AHR2,1710663310018186.0,1.58,-2.18,106.06,17.99,32.80470473649836,-79.82619945212002,-37.46719271531816,61.52605756172884,
557,2024-03-17 08:15:10,G08,24.3,28.3,4.0,15:32.3,AHR2,1710663310018186.0,1.58,-2.18,106.06,17.99,32.80494888559937,-79.8256429112343,-14.623610836433691,-0.4264596977470133,
558,2024-03-17 08:15:10,G09,25.1,33.5,8.399999999999999,15:32.3,AHR2,1710663310018186.0,1.58,-2.18,106.06,17.99,32.80521179529563,-79.82575626761314,9.975288557631762,12.19204362783217,
559,2024-03-17 08:15:10,G27,32.6,38.6,6.0,15:32.3,AHR2,1710663310018186.0,1.58,-2.18,106.06,17.99,32.80512613579057,-79.82567950935517,1.96063722711927,3.647536971539653,
560,2024-03-17 08:15:10,G28,24.5,31.0,6.5,15:32.3,AHR2,1710663310018186.0,1.58,-2.18,106.06,17.99,32.80494888559937,-79.8256429112343,-14.623610836433691,-0.4264596977470133,
561,2024-03-17 08:15:11,G03,31.8,34.1,2.3000000000000007,15:33.3,AHR2,1710663311031742.0,1.74,-1.56,105.44,17.73,32.80506437927548,-79.82562363455672,-2.887389252165199,2.0674941572493197,
562,2024-03-17 08:15:11,G04,34.8,37.6,2.8000000000000043,15:33.3,AHR2,1710663311031742.0,1.74,-1.56,105.44,17.73,32.80470058248798,-79.8261497833609,-36.925698618293104,60.63685304523249,
563,2024-03-17 08:15:11,G08,23.5,30.0,6.5,15:33.3,AHR2,1710663311031742.0,1.74,-1.56,105.44,17.73,32.804941203000496,-79.82560128587481,-14.41226329819438,-0.4202962947212327,
564,2024-03-17 08:15:11,G09,24.5,28.0,3.5,15:33.3,AHR2,1710663311031742.0,1.74,-1.56,105.44,17.73,32.805200312968935,-79.82571300397213,9.831120834388628,12.01583828185641,
565,2024-03-17 08:15:11,G27,31.8,38.2,6.400000000000002,15:33.3,AHR2,1710663311031742.0,1.74,-1.56,105.44,17.73,32.805115891466166,-79.82563735506183,1.9323011440569648,3.594820992689126,
566,2024-03-17 08:15:11,G28,24.5,27.3,2.8000000000000007,15:33.3,AHR2,1710663311031742.0,1.74,-1.56,105.44,17.73,32.804941203000496,-79.82560128587481,-14.41226329819438,-0.4202962947212327,
567,2024-03-17 08:15:12,G03,33.1,34.9,1.7999999999999972,15:34.4,AHR2,1710663312045612.0,0.77,-2.39,106.2,16.88,32.80505078953291,-79.82558234459646,-2.7489638698099754,1.9683756649920603,
568,2024-03-17 08:15:12,G04,34.7,40.8,6.099999999999994,15:34.4,AHR2,1710663312045612.0,0.77,-2.39,106.2,16.88,32.80470443371875,-79.82608326910871,-35.15543021885995,57.72983953421746,
569,2024-03-17 08:15:12,G08,24.4,27.8,3.400000000000002,15:34.4,AHR2,1710663312045612.0,0.77,-2.39,106.2,16.88,32.804933518516584,-79.82556106734087,-13.721319721341798,-0.4001467166012606,
570,2024-03-17 08:15:12,G09,24.2,27.6,3.400000000000002,15:34.4,AHR2,1710663312045612.0,0.77,-2.39,106.2,16.88,32.8051802063576,-79.8256674295201,9.359803481018222,11.439782591672888,
571,2024-03-17 08:15:12,G27,31.7,37.9,6.199999999999999,15:34.4,AHR2,1710663312045612.0,0.77,-2.39,106.2,16.88,32.805099832150546,-79.82559540732183,1.8396639894055984,3.4224803669704333,
572,2024-03-17 08:15:12,G28,25.5,30.8,5.300000000000001,15:34.4,AHR2,1710663312045612.0,0.77,-2.39,106.2,16.88,32.804933518516584,-79.82556106734087,-13.721319721341798,-0.4001467166012606,
573,2024-03-17 08:15:13,G03,32.5,35.7,3.200000000000003,15:35.3,AHR2,1710663312961303.0,1.5,-2.17,106.08,16.41,32.805040691765434,-79.82553443001048,-2.672422922210288,1.913569073939603,
574,2024-03-17 08:15:13,G04,35.1,39.2,4.100000000000001,15:35.3,AHR2,1710663312961303.0,1.5,-2.17,106.08,16.41,32.80470397977241,-79.82602140699971,-34.17657779676092,56.12243513314313,
575,2024-03-17 08:15:13,G08,22.0,25.8,3.8000000000000007,15:35.3,AHR2,1710663312961303.0,1.5,-2.17,106.08,16.41,32.80492668600599,-79.82551374518948,-13.339269296698577,-0.3890052064475892,
576,2024-03-17 08:15:13,G09,23.4,24.1,0.7000000000000028,15:35.3,AHR2,1710663312961303.0,1.5,-2.17,106.08,16.41,32.80516650514921,-79.82561714586672,9.099193206852084,11.121258288928388,
577,2024-03-17 08:15:13,G27,31.7,36.9,5.199999999999999,15:35.3,AHR2,1710663312961303.0,1.5,-2.17,106.08,16.41,32.80508836885602,-79.82554712902304,1.7884411899499404,3.3271863206185803,
578,2024-03-17 08:15:13,G28,25.4,25.4,0.0,15:35.3,AHR2,1710663312961303.0,1.5,-2.17,106.08,16.41,32.80492668600599,-79.82551374518948,-13.339269296698577,-0.3890052064475892,
579,2024-03-17 08:15:14,G03,32.6,36.9,4.299999999999997,15:36.3,AHR2,1710663313976445.0,1.86,-1.86,106.91,15.74,32.80503104060251,-79.8254866965664,-2.563311186779471,1.8354404062092704,
580,2024-03-17 08:15:14,G04,34.6,39.4,4.799999999999997,15:36.3,AHR2,1710663313976445.0,1.86,-1.86,106.91,15.74,32.80470807618463,-79.82595379088515,-32.78119023160461,53.83102525071477,
581,2024-03-17 08:15:14,G08,23.5,24.6,1.1000000000000014,15:36.3,AHR2,1710663313976445.0,1.86,-1.86,106.91,15.74,32.804921689571074,-79.82546685628117,-12.794643365583596,-0.3731226031311894,
582,2024-03-17 08:15:14,G09,25.6,24.5,-1.1000000000000014,15:36.3,AHR2,1710663313976445.0,1.86,-1.86,106.91,15.74,32.80515171716615,-79.82556603523615,8.727684358619788,10.667191014622972,
583,2024-03-17 08:15:14,G27,32.2,38.7,6.5,15:36.3,AHR2,1710663313976445.0,1.86,-1.86,106.91,15.74,32.80507677109066,-79.82549887709392,1.7154213395626376,3.191341402313467,
584,2024-03-17 08:15:14,G28,24.6,29.5,4.899999999999999,15:36.3,AHR2,1710663313976445.0,1.86,-1.86,106.91,15.74,32.804921689571074,-79.82546685628117,-12.794643365583596,-0.3731226031311894,
585,2024-03-17 08:15:15,G03,32.5,34.8,2.299999999999997,15:37.3,AHR2,1710663314991541.0,8.27,0.04,111.74,15.2,32.80502515700855,-79.8254248757003,-2.4753704013152777,1.7724710438363953,
586,2024-03-17 08:15:15,G04,35.1,39.3,4.199999999999996,15:37.3,AHR2,1710663314991541.0,8.27,0.04,111.74,15.2,32.804713272714736,-79.82587594518309,-31.65654971496083,51.984217626534594,
587,2024-03-17 08:15:15,G08,23.6,24.2,0.5999999999999979,15:37.3,AHR2,1710663314991541.0,8.27,0.04,111.74,15.2,32.80491955754518,-79.82540571608556,-12.355691203588272,-0.36032170132768,
588,2024-03-17 08:15:15,G09,23.8,22.7,-1.1000000000000014,15:37.3,AHR2,1710663314991541.0,8.27,0.04,111.74,15.2,32.805141693452654,-79.82550149245904,8.428259372009059,10.301226413305438,
589,2024-03-17 08:15:15,G27,32.2,36.9,4.699999999999996,15:37.3,AHR2,1710663314991541.0,8.27,0.04,111.74,15.2,32.805069318594825,-79.82543663834444,1.6565695307064876,3.081854473433618,
590,2024-03-17 08:15:15,G28,26.5,28.7,2.1999999999999997,15:37.3,AHR2,1710663314991541.0,8.27,0.04,111.74,15.2,32.80491955754518,-79.82540571608556,-12.355691203588272,-0.36032170132768,
591,2024-03-17 08:15:16,G03,31.8,35.6,3.8000000000000007,15:38.3,AHR2,1710663316006871.0,6.76,-2.94,127.7,15.35,32.80499735683565,-79.82538803457506,-2.499798492188626,1.7899626013448016,
592,2024-03-17 08:15:16,G04,34.9,40.5,5.600000000000001,15:38.3,AHR2,1710663316006871.0,6.76,-2.94,127.7,15.35,32.80468239482211,-79.82584355541846,-31.96895107225379,52.49722173755011,
593,2024-03-17 08:15:16,G08,24.5,26.5,2.0,15:38.3,AHR2,1710663316006871.0,6.76,-2.94,127.7,15.35,32.80489071530136,-79.82536868588444,-12.47762283344209,-0.3638775211997262,
594,2024-03-17 08:15:16,G09,24.6,24.3,-0.3000000000000007,15:38.3,AHR2,1710663316006871.0,6.76,-2.94,127.7,15.35,32.80511504327839,-79.82546540742312,8.511433302558679,10.402883641976125,
595,2024-03-17 08:15:16,G27,31.7,37.2,5.500000000000004,15:38.3,AHR2,1710663316006871.0,6.76,-2.94,127.7,15.35,32.8050419542149,-79.82539991329837,1.6729173189052216,3.112267627398563,
596,2024-03-17 08:15:16,G28,26.5,27.1,0.6000000000000014,15:38.3,AHR2,1710663316006871.0,6.76,-2.94,127.7,15.35,32.80489071530136,-79.82536868588444,-12.47762283344209,-0.3638775211997262,
597,2024-03-17 08:15:17,G03,33.3,34.9,1.6000000000000014,15:39.3,AHR2,1710663317021743.0,4.09,-3.01,132.71,15.3,32.804971870996944,-79.82535869939322,-2.491655795230843,1.784132082175333,
598,2024-03-17 08:15:17,G04,34.7,39.6,4.899999999999999,15:39.3,AHR2,1710663317021743.0,4.09,-3.01,132.71,15.3,32.8046579350125,-79.82581273644973,-31.86481728648947,52.3262203672116,
599,2024-03-17 08:15:17,G08,23.6,27.6,4.0,15:39.3,AHR2,1710663317021743.0,4.09,-3.01,132.71,15.3,32.80486557686111,-79.82533941372789,-12.436978956824152,-0.3626922479090441,
600,2024-03-17 08:15:17,G09,23.8,26.1,2.3000000000000007,15:39.3,AHR2,1710663317021743.0,4.09,-3.01,132.71,15.3,32.805089174061024,-79.8254358202115,8.483708659042138,10.368997899085894,
601,2024-03-17 08:15:17,G27,31.8,34.2,2.400000000000002,15:39.3,AHR2,1710663317021743.0,4.09,-3.01,132.71,15.3,32.80501632309452,-79.82537053942346,1.66746805617231,3.102129909410248,
602,2024-03-17 08:15:17,G28,26.3,28.4,2.099999999999998,15:39.3,AHR2,1710663317021743.0,4.09,-3.01,132.71,15.3,32.80486557686111,-79.82533941372789,-12.436978956824152,-0.3626922479090441,
603,2024-03-17 08:15:18,G03,33.2,33.6,0.3999999999999986,15:40.3,AHR2,1710663318034917.0,3.24,-2.74,135.21,15.48,32.80494393817339,-79.82532794385891,-2.5209692868462232,1.8051217954943557,
604,2024-03-17 08:15:18,G04,34.7,37.0,2.299999999999997,15:40.3,AHR2,1710663318034917.0,3.24,-2.74,135.21,15.48,32.80462630893647,-79.82578732250855,-32.23969613457955,52.941820734218425,
605,2024-03-17 08:15:18,G08,22.3,27.9,5.599999999999998,15:40.3,AHR2,1710663318034917.0,3.24,-2.74,135.21,15.48,32.80483639355624,-79.82530843130422,-12.583295827344282,-0.3669592001054089,
606,2024-03-17 08:15:18,G09,22.9,25.3,2.400000000000002,15:40.3,AHR2,1710663318034917.0,3.24,-2.74,135.21,15.48,32.80506262123164,-79.82540597197766,8.583516635376654,10.490985668647214,
607,2024-03-17 08:15:18,G27,31.8,34.7,2.900000000000002,15:40.3,AHR2,1710663318034917.0,3.24,-2.74,135.21,15.48,32.804988913220946,-79.82533992318312,1.6870852565003325,3.138625423462939,
608,2024-03-17 08:15:18,G28,26.6,27.1,0.5,15:40.3,AHR2,1710663318034917.0,3.24,-2.74,135.21,15.48,32.80483639355624,-79.82530843130422,-12.583295827344282,-0.3669592001054089,
609,2024-03-17 08:15:19,G03,31.6,31.7,0.0999999999999978,15:41.3,AHR2,1710663318949935.0,2.53,-3.23,137.45,15.1,32.80491261000814,-79.82529812426124,-2.45908516270874,1.7608101167053611,
610,2024-03-17 08:15:19,G04,34.3,41.0,6.700000000000003,15:41.3,AHR2,1710663318949935.0,2.53,-3.23,137.45,15.1,32.80460277796586,-79.82574622619858,-31.44828412961895,51.64221814743744,
611,2024-03-17 08:15:19,G08,22.6,27.0,4.399999999999999,15:41.3,AHR2,1710663318949935.0,2.53,-3.23,137.45,15.1,32.80480770540714,-79.82527909069586,-12.274404225569858,-0.3579511773535235,
612,2024-03-17 08:15:19,G09,22.8,25.5,2.6999999999999997,15:41.3,AHR2,1710663318949935.0,2.53,-3.23,137.45,15.1,32.80502837962268,-79.82537423696522,8.37281061377957,10.233455573841768,
613,2024-03-17 08:15:19,G27,31.5,32.1,0.6000000000000014,15:41.3,AHR2,1710663318949935.0,2.53,-3.23,137.45,15.1,32.804956481003686,-79.82530980952,1.645671109176707,3.061579230817875,
614,2024-03-17 08:15:19,G28,25.9,27.8,1.900000000000002,15:41.3,AHR2,1710663318949935.0,2.53,-3.23,137.45,15.1,32.80480770540714,-79.82527909069586,-12.274404225569858,-0.3579511773535235,
615,2024-03-17 08:15:20,G03,32.1,32.6,0.5,15:42.3,AHR2,1710663319966870.0,2.54,-2.5,136.8,15.69,32.8048804691661,-79.82526778347416,-2.5551684898216886,1.8296098870398017,
616,2024-03-17 08:15:20,G04,34.8,39.2,4.400000000000006,15:42.3,AHR2,1710663319966870.0,2.54,-2.5,136.8,15.69,32.80455853123306,-79.82573339400602,-32.67705644584029,53.66002388037627,
617,2024-03-17 08:15:20,G08,22.8,26.7,3.899999999999999,15:42.3,AHR2,1710663319966870.0,2.54,-2.5,136.8,15.69,32.80477146568743,-79.82524800621421,-12.753999488965656,-0.3719373298405074,
618,2024-03-17 08:15:20,G09,24.4,25.2,0.8000000000000007,15:42.3,AHR2,1710663319966870.0,2.54,-2.5,136.8,15.69,32.80500076218079,-79.82534687011412,8.699959715103248,10.633305271732745,
619,2024-03-17 08:15:20,G27,32.5,35.2,2.700000000000003,15:42.3,AHR2,1710663319966870.0,2.54,-2.5,136.8,15.69,32.80492605430804,-79.82527992530862,1.7099720768297264,3.181203684325152,
620,2024-03-17 08:15:20,G28,26.0,30.2,4.199999999999999,15:42.3,AHR2,1710663319966870.0,2.54,-2.5,136.8,15.69,32.80477146568743,-79.82524800621421,-12.753999488965656,-0.3719373298405074,
621,2024-03-17 08:15:21,G03,32.5,31.5,-1.0,15:43.3,AHR2,1710663320982133.0,2.74,-2.83,136.88,15.44,32.80484656846705,-79.8252375360194,-2.5144551603418024,1.8004574024003612,
622,2024-03-17 08:15:21,G04,35.3,36.8,1.5,15:43.3,AHR2,1710663320982133.0,2.74,-2.83,136.88,15.44,32.80452976032404,-79.82569572764521,-32.15638950320545,52.8050202902636,
623,2024-03-17 08:15:21,G08,23.5,26.0,2.5,15:43.3,AHR2,1710663320982133.0,2.74,-2.83,136.88,15.44,32.80473930186031,-79.8252180738847,-12.550780881093422,-0.3660109859943047,
624,2024-03-17 08:15:21,G09,24.0,24.9,0.8999999999999986,15:43.3,AHR2,1710663320982133.0,2.74,-2.83,136.88,15.44,32.80496494472126,-79.82531536251528,8.561337026324141,10.46387720359839,
625,2024-03-17 08:15:21,G27,31.8,33.6,1.8000000000000007,15:43.3,AHR2,1710663320982133.0,2.74,-2.83,136.88,15.44,32.80489142725096,-79.82524948438932,1.6827258671012115,3.130515287744464,
626,2024-03-17 08:15:21,G28,26.2,27.7,1.5,15:43.3,AHR2,1710663320982133.0,2.74,-2.83,136.88,15.44,32.80473930186031,-79.8252180738847,-12.550780881093422,-0.3660109859943047,
627,2024-03-17 08:15:22,G03,32.7,28.2,-4.500000000000004,15:44.3,AHR2,1710663321996156.0,2.01,-2.56,136.35,15.06,32.80481389083548,-79.82521002802028,-2.452571036204319,1.756145723611367,
628,2024-03-17 08:15:22,G04,34.3,38.6,4.300000000000004,15:44.3,AHR2,1710663321996156.0,2.01,-2.56,136.35,15.06,32.80450487988296,-79.82565694293378,-31.364977498244848,51.50541770348261,
629,2024-03-17 08:15:22,G08,22.9,26.1,3.200000000000003,15:44.3,AHR2,1710663321996156.0,2.01,-2.56,136.35,15.06,32.80470926424348,-79.8251910448749,-12.241889279319,-0.3570029632424195,
630,2024-03-17 08:15:22,G09,23.6,25.9,2.299999999999997,15:44.3,AHR2,1710663321996156.0,2.01,-2.56,136.35,15.06,32.80492935364752,-79.82528593910139,8.350631004727056,10.206347108792942,
631,2024-03-17 08:15:22,G27,31.9,32.8,0.8999999999999986,15:44.3,AHR2,1710663321996156.0,2.01,-2.56,136.35,15.06,32.80485764556796,-79.82522168232474,1.641311719777586,3.053469095099401,
632,2024-03-17 08:15:22,G28,26.3,28.2,1.8999999999999984,15:44.3,AHR2,1710663321996156.0,2.01,-2.56,136.35,15.06,32.80470926424348,-79.8251910448749,-12.241889279319,-0.3570029632424195,
633,2024-03-17 08:15:23,G03,32.3,31.2,-1.099999999999998,15:45.3,AHR2,1710663323009783.0,3.09,-1.77,134.59,14.88,32.80478158611921,-79.82517847147702,-2.4232573892799123,1.735155899084441,
634,2024-03-17 08:15:23,G04,35.1,30.0,-5.100000000000001,15:45.3,AHR2,1710663323009783.0,3.09,-1.77,134.59,14.88,32.80447626864289,-79.8256200447691,-30.990096663968,50.88981407489593,
635,2024-03-17 08:15:23,G08,24.0,25.1,1.1000000000000014,15:45.3,AHR2,1710663323009783.0,3.09,-1.77,134.59,14.88,32.80467821008426,-79.8251597152222,-12.095571633581402,-0.352735988438847,
636,2024-03-17 08:15:23,G09,25.1,23.4,-1.7000000000000028,15:45.3,AHR2,1710663323009783.0,3.09,-1.77,134.59,14.88,32.80489566885348,-79.82525347525286,8.25082249958895,10.084358692914837,
637,2024-03-17 08:15:23,G27,32.2,34.1,1.8999999999999984,15:45.3,AHR2,1710663323009783.0,3.09,-1.77,134.59,14.88,32.80482481787002,-79.82518998648676,1.6216944155135222,3.016973387685822,
638,2024-03-17 08:15:23,G28,26.3,26.1,-0.1999999999999993,15:45.3,AHR2,1710663323009783.0,3.09,-1.77,134.59,14.88,32.80467821008426,-79.8251597152222,-12.095571633581402,-0.352735988438847,
639,2024-03-17 08:15:24,G03,32.5,33.7,1.2000000000000028,15:46.3,AHR2,1710663324024298.0,2.42,-3.22,134.19,15.43,32.80474126552828,-79.82515260557875,-2.5128267451974677,1.7992913875327905,
640,2024-03-17 08:15:24,G04,34.6,35.7,1.1000000000000014,15:46.3,AHR2,1710663324024298.0,2.42,-3.22,134.19,15.43,32.80442466293215,-79.82561050046982,-32.135564335001995,52.77082262545978,
641,2024-03-17 08:15:24,G08,24.2,26.7,2.5,15:46.3,AHR2,1710663324024298.0,2.42,-3.22,134.19,15.43,32.804634068516705,-79.82513315604815,-12.542652725943809,-0.3657739494219344,
642,2024-03-17 08:15:24,G27,32.2,33.6,1.3999999999999986,15:46.3,AHR2,1710663324024298.0,2.42,-3.22,134.19,15.43,32.804786095207554,-79.82516454621066,1.6816360977034628,3.128487898835512,
643,2024-03-17 08:15:24,G28,26.5,29.0,2.5,15:46.3,AHR2,1710663324024298.0,2.42,-3.22,134.19,15.43,32.804634068516705,-79.82513315604815,-12.542652725943809,-0.3657739494219344,
644,2024-03-17 08:15:25,G03,32.3,34.5,2.200000000000003,15:47.4,AHR2,1710663325039750.0,2.35,-4.87,133.96,14.92,32.804702744405986,-79.825124728988,-2.4297715157843327,1.739820292178435,
645,2024-03-17 08:15:25,G04,35.0,39.5,4.5,15:47.4,AHR2,1710663325039750.0,2.35,-4.87,133.96,14.92,32.804396606455846,-79.82556748930392,-31.073403295342104,51.02661451885076,
646,2024-03-17 08:15:25,G09,23.8,25.9,2.099999999999998,15:47.4,AHR2,1710663325039750.0,2.35,-4.87,133.96,14.92,32.8048171337126,-79.82519993438672,8.273002108641464,10.11146715796366,
647,2024-03-17 08:15:25,G27,32.1,26.7,-5.400000000000002,15:47.4,AHR2,1710663325039750.0,2.35,-4.87,133.96,14.92,32.80474609233266,-79.82513627495206,1.6260538049126427,3.0250835234042963,
648,2024-03-17 08:15:25,G28,26.7,27.1,0.4000000000000021,15:47.4,AHR2,1710663325039750.0,2.35,-4.87,133.96,14.92,32.8045990905706,-79.82510592231318,-12.128086579832262,-0.3536842025499512,
649,2024-03-17 08:15:26,G03,31.7,31.8,0.1000000000000014,15:48.3,AHR2,1710663325955956.0,1.83,-2.04,132.01,15.32,32.80467380254601,-79.825097951258,-2.4949127808285403,1.7864642231183785,
650,2024-03-17 08:15:26,G04,34.9,35.0,0.1000000000000014,15:48.3,AHR2,1710663325955956.0,1.83,-2.04,132.01,15.32,32.80435945725188,-79.82555258181229,-31.90646960908314,52.39461895839909,
651,2024-03-17 08:15:26,G09,23.6,29.3,5.699999999999999,15:48.3,AHR2,1710663325955956.0,1.83,-2.04,132.01,15.32,32.804791258549805,-79.82517517288531,8.494798199166599,10.382551808451913,
652,2024-03-17 08:15:26,G27,32.0,33.3,1.2999999999999972,15:48.3,AHR2,1710663325955956.0,1.83,-2.04,132.01,15.32,32.80471831260022,-79.82510980676503,1.6696476989038496,3.106184880589041,
653,2024-03-17 08:15:26,G28,27.3,30.0,2.6999999999999997,15:48.3,AHR2,1710663325955956.0,1.83,-2.04,132.01,15.32,32.8045673698239,-79.82507864038328,-12.453236042340848,-0.3631663436609924,
654,2024-03-17 08:15:27,G03,32.2,29.1,-3.1000000000000014,15:49.3,AHR2,1710663326969706.0,3.23,-2.06,131.36,15.32,32.80463734533102,-79.82506568171436,-2.4949127808285403,1.7864642231183785,
655,2024-03-17 08:15:27,G04,34.7,30.4,-4.300000000000004,15:49.3,AHR2,1710663326969706.0,3.23,-2.06,131.36,15.32,32.8043230001658,-79.82552031226865,-31.90646960908314,52.39461895839909,
656,2024-03-17 08:15:27,G09,23.2,24.5,1.3000000000000007,15:49.3,AHR2,1710663326969706.0,3.23,-2.06,131.36,15.32,32.80475480128664,-79.82514290334167,8.494798199166599,10.382551808451913,
657,2024-03-17 08:15:27,G27,31.9,35.9,4.0,15:49.3,AHR2,1710663326969706.0,3.23,-2.06,131.36,15.32,32.80468185536697,-79.82507753722139,1.6696476989038496,3.106184880589041,
658,2024-03-17 08:15:27,G28,26.3,28.0,1.6999999999999993,15:49.3,AHR2,1710663326969706.0,3.23,-2.06,131.36,15.32,32.80453091265256,-79.82504637083964,-12.453236042340848,-0.3631663436609924,
659,2024-03-17 08:15:28,G03,32.5,34.9,2.3999999999999986,15:50.3,AHR2,1710663327983033.0,2.4,-2.6,133.5,15.63,32.80459880956939,-79.82503958825613,-2.54539737771957,1.8226133530027615,
660,2024-03-17 08:15:28,G04,34.8,30.3,-4.4999999999999964,15:50.3,AHR2,1710663327983033.0,2.4,-2.6,133.5,15.63,32.804278103762215,-79.8255034182664,-32.55209749187252,53.45482484523395,
661,2024-03-17 08:15:28,G08,25.6,26.0,0.3999999999999986,15:50.3,AHR2,1710663327983033.0,2.4,-2.6,133.5,15.63,32.80449022327053,-79.82501988662558,-12.7052274571981,-0.370515019977455,
662,2024-03-17 08:15:28,G09,23.7,26.2,2.5,15:50.3,AHR2,1710663327983033.0,2.4,-2.6,133.5,15.63,32.80471864219678,-79.82511837246422,8.666690565926274,10.5926428973179,
663,2024-03-17 08:15:28,G27,31.5,38.3,6.799999999999997,15:50.3,AHR2,1710663327983033.0,2.4,-2.6,133.5,15.63,32.80464422024717,-79.82505168365952,1.7034330446990662,3.169038577427884,
664,2024-03-17 08:15:28,G28,26.1,31.5,5.399999999999999,15:50.3,AHR2,1710663327983033.0,2.4,-2.6,133.5,15.63,32.80449022327053,-79.82501988662558,-12.7052274571981,-0.370515019977455,
665,2024-03-17 08:15:29,G03,32.6,31.3,-1.3000000000000007,15:51.3,AHR2,1710663328995982.0,2.11,-2.2,131.63,15.32,32.80456404471889,-79.82501227789902,-2.4949127808285403,1.7864642231183785,
666,2024-03-17 08:15:29,G04,34.7,31.6,-3.1000000000000014,15:51.3,AHR2,1710663328995982.0,2.11,-2.2,131.63,15.32,32.80424969981289,-79.82546690845331,-31.90646960908314,52.39461895839909,
667,2024-03-17 08:15:29,G08,23.2,25.8,2.6000000000000014,15:51.3,AHR2,1710663328995982.0,2.11,-2.2,131.63,15.32,32.8044576121282,-79.8249929670243,-12.453236042340848,-0.3631663436609924,
668,2024-03-17 08:15:29,G09,25.5,26.6,1.1000000000000014,15:51.3,AHR2,1710663328995982.0,2.11,-2.2,131.63,15.32,32.80468150057766,-79.82508949952633,8.494798199166599,10.382551808451913,
669,2024-03-17 08:15:29,G27,32.0,37.3,5.299999999999997,15:51.3,AHR2,1710663328995982.0,2.11,-2.2,131.63,15.32,32.80460855471814,-79.82502413340605,1.6696476989038496,3.106184880589041,
670,2024-03-17 08:15:29,G28,25.6,27.2,1.599999999999998,15:51.3,AHR2,1710663328995982.0,2.11,-2.2,131.63,15.32,32.8044576121282,-79.8249929670243,-12.453236042340848,-0.3631663436609924,
671,2024-03-17 08:15:30,G03,32.3,31.7,-0.5999999999999979,15:52.3,AHR2,1710663330005058.0,2.54,-2.41,130.83,15.1,32.80452702551048,-79.8249828005397,-2.45908516270874,1.7608101167053611,
672,2024-03-17 08:15:30,G04,35.2,30.6,-4.600000000000001,15:52.3,AHR2,1710663330005058.0,2.54,-2.41,130.83,15.1,32.8042171948122,-79.82543090247704,-31.44828412961895,51.64221814743744,
673,2024-03-17 08:15:30,G08,23.3,24.8,1.5,15:52.3,AHR2,1710663330005058.0,2.54,-2.41,130.83,15.1,32.80442212136454,-79.82496376697432,-12.274404225569858,-0.3579511773535235,
674,2024-03-17 08:15:30,G09,22.3,24.8,2.5,15:52.3,AHR2,1710663330005058.0,2.54,-2.41,130.83,15.1,32.80464279462284,-79.82505891324368,8.37281061377957,10.233455573841768,
675,2024-03-17 08:15:30,G27,32.4,37.4,5.0,15:52.3,AHR2,1710663330005058.0,2.54,-2.41,130.83,15.1,32.804570896315724,-79.82499448579846,1.645671109176707,3.061579230817875,
676,2024-03-17 08:15:30,G28,26.9,26.8,-0.0999999999999978,15:52.3,AHR2,1710663330005058.0,2.54,-2.41,130.83,15.1,32.80442212136454,-79.82496376697432,-12.274404225569858,-0.3579511773535235,
677,2024-03-17 08:15:31,G03,32.3,30.5,-1.7999999999999972,15:53.3,AHR2,1710663331014472.0,2.98,-1.71,130.84,15.4,32.80449268191385,-79.82495333037559,-2.507941033837382,1.795793009306367,
678,2024-03-17 08:15:31,G04,34.4,34.4,0.0,15:53.3,AHR2,1710663331014472.0,2.98,-1.71,130.84,15.4,32.804176695774814,-79.82541033497756,-32.073082871831346,52.66821984630876,
679,2024-03-17 08:15:31,G08,24.3,25.1,0.8000000000000007,15:53.3,AHR2,1710663331014472.0,2.98,-1.71,130.84,15.4,32.80438569362563,-79.82493391866089,-12.518265934842564,-0.3650627718832006,
680,2024-03-17 08:15:31,G09,24.5,23.2,-1.3000000000000007,15:53.3,AHR2,1710663331014472.0,2.98,-1.71,130.84,15.4,32.80461075102396,-79.82503095524862,8.539157417271626,10.436768738549564,
681,2024-03-17 08:15:31,G27,31.5,36.2,4.700000000000003,15:53.3,AHR2,1710663331014472.0,2.98,-1.71,130.84,15.4,32.80453742430523,-79.82496524779121,1.678366477702091,3.12240515202599,
682,2024-03-17 08:15:31,G28,25.1,27.5,2.3999999999999986,15:53.3,AHR2,1710663331014472.0,2.98,-1.71,130.84,15.4,32.80438569362563,-79.82493391866089,-12.518265934842564,-0.3650627718832006,
683,2024-03-17 08:15:32,G03,31.8,32.8,0.9999999999999964,15:54.3,AHR2,1710663332025053.0,1.58,-2.17,130.67,15.17,32.80445525244395,-79.82492813232936,-2.470484845264219,1.7689727768178751,
684,2024-03-17 08:15:32,G04,34.2,40.7,6.5,15:54.3,AHR2,1710663332025053.0,1.58,-2.17,130.67,15.17,32.804143985701614,-79.82537831155133,-31.59407023797694,51.88161810896343,
685,2024-03-17 08:15:32,G08,24.5,22.6,-1.8999999999999984,15:54.3,AHR2,1710663332025053.0,1.58,-2.17,130.67,15.17,32.80434986207448,-79.8249090105293,-12.331305187704494,-0.3596105463961538,
686,2024-03-17 08:15:32,G09,24.0,25.4,1.3999999999999986,15:54.3,AHR2,1710663332025053.0,1.58,-2.17,130.67,15.17,32.80457155813821,-79.82500459787214,8.41162479742057,10.280895226098016,
687,2024-03-17 08:15:32,G27,32.1,37.0,4.899999999999999,15:54.3,AHR2,1710663332025053.0,1.58,-2.17,130.67,15.17,32.80449932658737,-79.82493987175795,1.6533000146411576,3.075771919984984,
688,2024-03-17 08:15:33,G03,32.3,34.0,1.7000000000000028,15:55.3,AHR2,1710663333035962.0,1.63,-2.65,129.8,15.25,32.80441761293822,-79.8248997766645,-2.4835130982730607,1.778301563005864,
689,2024-03-17 08:15:33,G04,35.1,32.4,-2.700000000000003,15:55.3,AHR2,1710663333035962.0,1.63,-2.65,129.8,15.25,32.80410470484367,-79.82535232993415,-31.76068350072515,52.1552189968731,
690,2024-03-17 08:15:33,G27,32.0,33.1,1.1000000000000014,15:55.3,AHR2,1710663333035962.0,1.63,-2.65,129.8,15.25,32.804461919490635,-79.82491157800168,1.6620187934393988,3.091992191421933,
691,2024-03-17 08:15:34,G03,32.5,32.9,0.3999999999999986,15:56.3,AHR2,1710663333951262.0,2.31,-2.03,129.9,15.13,32.80438383394495,-79.82486916659998,-2.463970718759798,1.7643083837238809,
692,2024-03-17 08:15:34,G04,34.9,39.4,4.5,15:56.3,AHR2,1710663333951262.0,2.31,-2.03,129.9,15.13,32.80407338819438,-79.82531815879811,-31.51076360660284,51.74481766500861,
693,2024-03-17 08:15:34,G27,31.8,36.7,4.900000000000002,15:56.3,AHR2,1710663333951262.0,2.31,-2.03,129.9,15.13,32.80442779183916,-79.82488087507427,1.6489406252420369,3.0676617842665093,
694,2024-03-17 08:15:35,G03,33.0,27.6,-5.399999999999999,15:57.3,AHR2,1710663334961431.0,2.37,-2.28,130.34,15.22,32.804347532435386,-79.82484078484649,-2.478627542222001,1.774803295987344,
695,2024-03-17 08:15:35,G04,34.6,37.9,3.299999999999997,15:57.3,AHR2,1710663334961431.0,2.37,-2.28,130.34,15.22,32.80403524013866,-79.82529244785533,-31.698204023741265,52.05261947930194,
696,2024-03-17 08:15:35,G09,20.0,25.3,5.300000000000001,15:57.3,AHR2,1710663334961431.0,2.37,-2.28,130.34,15.22,32.804464221330925,-79.82491750241904,8.43934944093711,10.314780968988243,
697,2024-03-17 08:15:35,G27,32.6,35.6,3.0,15:57.3,AHR2,1710663334961431.0,2.37,-2.28,130.34,15.22,32.80439175179326,-79.82485256296813,1.6587492773740689,3.085909637973299,
698,2024-03-17 08:15:36,G03,32.6,32.6,0.0,15:58.3,AHR2,1710663335968734.0,2.41,-3.25,129.38,15.22,32.80430967204153,-79.82481258922707,-2.478627542222001,1.774803295987344,
699,2024-03-17 08:15:36,G04,35.0,40.3,5.299999999999997,15:58.3,AHR2,1710663335968734.0,2.41,-3.25,129.38,15.22,32.80399737987782,-79.82526425223591,-31.698204023741265,52.05261947930194,
700,2024-03-17 08:15:36,G27,31.1,37.3,6.199999999999996,15:58.3,AHR2,1710663335968734.0,2.41,-3.25,129.38,15.22,32.80435389138057,-79.82482436734871,1.6587492773740689,3.085909637973299,
701,2024-03-17 08:15:37,G03,32.7,32.8,0.0999999999999943,15:59.3,AHR2,1710663336978976.0,1.57,-3.7,128.51,15.09,32.80427290586766,-79.8247864920261,-2.4574565922553777,1.7596439906298869,
702,2024-03-17 08:15:37,G04,33.8,36.6,2.8000000000000043,15:59.3,AHR2,1710663336978976.0,1.57,-3.7,128.51,15.09,32.803963281245174,-79.82523429720041,-31.427456975228736,51.60801722105376,
703,2024-03-17 08:15:37,G27,31.8,35.7,3.900000000000002,15:59.3,AHR2,1710663336978976.0,1.57,-3.7,128.51,15.09,32.80431674749339,-79.8247981695461,1.644581235842916,3.0595516485480347,
704,2024-03-17 08:15:37,G28,26.9,25.1,-1.7999999999999972,15:59.3,AHR2,1710663336978976.0,1.57,-3.7,128.51,15.09,32.80416807149597,-79.82476747106602,-12.266275295202776,-0.3577141181739456,
705,2024-03-17 08:15:38,G03,27.2,36.4,9.2,16:00.3,AHR2,1710663337987541.0,2.47,-3.78,128.78,15.05,32.80423677759999,-79.82475543358079,-2.450942465750957,1.7549795975358924,
706,2024-03-17 08:15:38,G04,24.0,39.7,15.700000000000005,16:00.3,AHR2,1710663337987541.0,2.47,-3.78,128.78,15.05,32.80392797384367,-79.82520205173125,-31.34415034385463,51.47121677709893,
707,2024-03-17 08:15:38,G08,23.7,23.4,-0.3000000000000007,16:00.3,AHR2,1710663337987541.0,2.47,-3.78,128.78,15.05,32.80413222116159,-79.82473646304071,-12.233760348951918,-0.3567659040628415,
708,2024-03-17 08:15:38,G27,33.3,36.6,3.3000000000000043,16:00.3,AHR2,1710663337987541.0,2.47,-3.78,128.78,15.05,32.804280502994295,-79.82476708014649,1.6402218464437954,3.05144151282956,
709,2024-03-17 08:15:38,G28,26.8,27.5,0.6999999999999993,16:00.3,AHR2,1710663337987541.0,2.47,-3.78,128.78,15.05,32.80413222116159,-79.82473646304071,-12.233760348951918,-0.3567659040628415,
